X,Y,FID,Año,IdAccident,Fecha,Mes,Dia_mes,Dia_semana,Hora,Hora_texto,Hora_aprox,Región,Comuna,Tipo_Accid,Tipo__CONA,Zona,Ubicación,Causa__CON,Causa_Acci,Calle_Uno,Calle_Dos,Intersecci,Número,Ruta,Ubicaci_1,Calzada,Tipo_Calza,Estado_Cal,Condición,Estado_Atm,Fallecidos,Graves,Menos_Grav,Leves,CUT_REG,CUT_PROV,CUT_COM,REGION,PROVINCIA,COMUNA1,Tipo_direc,Direccion,Lat,Lon
-7860974.15763266,-3951526.80503275,1,2024,1653013,2024/11/22 00:00:00+00,Noviembre,22,Viernes,1899/12/30 00:00:00+00,12:30:00,12,REGION METROPOLITANA,PROVIDENCIA,COLISION LATERAL,COLISION,URBANA,TRAMO DE VIA RECTA,IMPRUDENCIA DEL CONDUCTOR,CONDUCCION NO ATENTO CONDICIONES TRANSITO MOMENTO,ANDRES BELLO, ,- ANDRES BELLO,1930, , ,UNIDIRECCIONAL,ASFALTO,BUENO,SECO,DESPEJADO,0,0,0,1,13,131,13123,Metropolitana de Santiago,Santiago,Providencia,Numero,"ANDRES BELLO 1930, Providencia",-33.422559,-70.616332
-7912896.97471544,-4087983.12807843,2,2024,1653118,2024/11/26 00:00:00+00,Noviembre,26,Martes,1899/12/30 00:00:00+00,06:25:00,6,REGION LIB.B.O'HIGGINS,SAN VICENTE,COLISION POR ALCANCE,COLISION,URBANA,CRUCE CON SENAL PARE,IMPRUDENCIA DEL CONDUCTOR,CONDUCCION SIN MANTENER DISTANCIA RAZONABLE NI PRUDENTE,HORACIO ARANGUIZ, ,- HORACIO ARANGUIZ,1323, , ,BIDIRECCIONAL,CONCRETO,BUENO,SECO,DESPEJADO,0,0,0,1,06,061,06117,Libertador General Bernardo O'Higgins,Cachapoal,San Vicente,Numero,"HORACIO ARANGUIZ 1323, San Vicente",-34.439598,-71.082763
-7925215.43101427,-3865780.4296043,3,2024,1653191,2024/11/27 00:00:00+00,Noviembre,27,Miércoles,1899/12/30 00:00:00+00,15:00:00,15,REGION VALPARAISO,CALERA,COLISION POR ALCANCE,COLISION,URBANA,TRAMO DE VIA RECTA,IMPRUDENCIA DEL CONDUCTOR,CONDUCCION NO ATENTO CONDICIONES TRANSITO MOMENTO,JOSE JOAQUIN GODOY, ,- JOSE JOAQUIN GODOY,100, , ,BIDIRECCIONAL,ASFALTO,BUENO,SECO,DESPEJADO,0,0,0,2,05,055,05502,Valparaíso,Quillota,Calera,Numero,"JOSE JOAQUIN GODOY 100, Calera",-32.777292,-71.193422
-7894285.00911097,-7011162.88325466,4,2024,1653303,2024/11/26 00:00:00+00,Noviembre,26,Martes,1899/12/30 00:00:00+00,08:30:00,8,REGION MAGALLANES Y ANTARTICA CHILENA,PUNTA ARENAS,CHOQUE LADO/FRENTE,CHOQUE,URBANA,TRAMO DE VIA RECTA,IMPRUDENCIA DEL CONDUCTOR,CONDUCCION NO ATENTO CONDICIONES TRANSITO MOMENTO,REPUBLICA, ,- REPUBLICA,475, , ,UNIDIRECCIONAL,CONCRETO,BUENO,SECO,DESPEJADO,0,0,0,1,12,121,12101,Magallanes y de la Antártica Chilena,Magallanes,Punta Arenas,Numero,"REPUBLICA 475, Punta Arenas",-53.151997,-70.915569
-7906847.28537354,-3955427.80899613,5,2024,1653358,2024/11/30 00:00:00+00,Noviembre,30,Sábado,1899/12/30 00:00:00+00,06:30:00,6,REGION METROPOLITANA,CURACAVI,COLISION POR ALCANCE,COLISION,RURAL,TRAMO DE VIA RECTA,ALCOHOL EN CONDUCTOR,CONDUCCION EN ESTADO DE EBRIEDAD, , , ,0,G-68,34,BIDIRECCIONAL,ASFALTO,BUENO,SECO,DESPEJADO,0,1,0,0,13,135,13503,Metropolitana de Santiago,Melipilla,Curacaví,Numero,G-68 km 34,-33.451802,-71.028418
-7857717.61026926,-3950466.33777326,6,2024,1653372,2024/11/22 00:00:00+00,Noviembre,22,Viernes,1899/12/30 00:00:00+00,18:00:00,18,REGION METROPOLITANA,LAS CONDES,COLISION,COLISION,URBANA,CRUCE CON SEMAFORO FUNCIONANDO,IMPRUDENCIA DEL CONDUCTOR,CONDUCCION NO ATENTO CONDICIONES TRANSITO MOMENTO,APOQUINDO, ,- APOQUINDO,4228, , ,BIDIRECCIONAL CON BANDEJON,CONCRETO,BUENO,SECO,DESPEJADO,0,0,0,1,13,131,13114,Metropolitana de Santiago,Santiago,Las Condes,Numero,"APOQUINDO 4228, Las Condes",-33.414607,-70.587078
-8150395.07675331,-4841577.23867124,7,2024,1653467,2024/11/30 00:00:00+00,Noviembre,30,Sábado,1899/12/30 00:00:00+00,17:00:00,17,REGION DE LOS RIOS,VALDIVIA,COLISION LATERAL,COLISION,URBANA,CRUCE CON SEMAFORO FUNCIONANDO,IMPRUDENCIA DEL CONDUCTOR,CONDUCCION NO ATENTO CONDICIONES TRANSITO MOMENTO,RAMON PICARTE, ,- RAMON PICARTE,2500, , ,BIDIRECCIONAL CON BANDEJON,CONCRETO,BUENO,SECO,DESPEJADO,0,0,1,0,14,141,14101,Los Ríos,Valdivia,Valdivia,Numero,"RAMON PICARTE 2500, Valdivia",-39.832126,-73.216245
-7933390.29567462,-3496661.04584886,8,2024,1653697,2024/11/25 00:00:00+00,Noviembre,25,Lunes,1899/12/30 00:00:00+00,10:15:00,10,REGION COQUIMBO,LA SERENA,COLISION PERPENDICULAR,COLISION,URBANA,TRAMO DE VIA RECTA,IMPRUDENCIA DEL CONDUCTOR,CONDUCCION NO ATENTO CONDICIONES TRANSITO MOMENTO,JOSE MANUEL BALMACEDA, ,- JOSE MANUEL BALMACEDA,5505, , ,BIDIRECCIONAL CON BANDEJON,CONCRETO,BUENO,SECO,NUBLADO,0,0,0,1,04,041,04101,Coquimbo,Elqui,La Serena,Numero,"JOSE MANUEL BALMACEDA 5505, La Serena",-29.946393,-71.266858
-8051359.27048046,-4503110.55376115,9,2024,1653823,2024/11/23 00:00:00+00,Noviembre,23,Sábado,1899/12/30 00:00:00+00,09:40:00,9,REGION BIO BIO,LOS ANGELES,CHOQUE FRONTAL,CHOQUE,URBANA,TRAMO DE VIA RECTA,IMPRUDENCIA DEL CONDUCTOR,CARGA SOBRESALE ESTRUCTURA VEHICULO,LAS INDUSTRIAS, ,- LAS INDUSTRIAS,514, , ,BIDIRECCIONAL,ASFALTO,BUENO,SECO,DESPEJADO,0,0,0,1,08,083,08301,Biobío,Biobío,Los Angeles,Numero,"LAS INDUSTRIAS 514, Los Angeles",-37.457791,-72.326591
-8214406.78181559,-5231295.23117907,10,2024,1653845,2024/11/22 00:00:00+00,Noviembre,22,Viernes,1899/12/30 00:00:00+00,18:30:00,18,REGION LOS LAGOS,CASTRO,COLISION LATERAL,COLISION,URBANA,TRAMO DE VIA RECTA,IMPRUDENCIA DEL CONDUCTOR,CONDUCCION NO ATENTO CONDICIONES TRANSITO MOMENTO,RUPERTO TRIVINOZ, ,- RUPERTO TRIVINOZ,1728, , ,BIDIRECCIONAL,CONCRETO,REGULAR,HUMEDO,NUBLADO,0,0,0,1,10,102,10201,Los Lagos,Chiloé,Castro,Numero,"RUPERTO TRIVINOZ 1728, Castro",-42.467681,-73.791272
-7863012.79317897,-3863021.83527539,11,2024,1654150,2024/12/02 00:00:00+00,Diciembre,2,Lunes,1899/12/30 00:00:00+00,07:30:00,7,REGION VALPARAISO,SANTA MARIA,COLISION,COLISION,RURAL,TRAMO DE VIA RECTA,IMPRUDENCIA DEL CONDUCTOR,CONDUCCION NO ATENTO CONDICIONES TRANSITO MOMENTO,LOS LEMUS, ,- LOS LEMUS,0, , ,BIDIRECCIONAL,ASFALTO,BUENO,SECO,DESPEJADO,1,0,0,0,05,057,05706,Valparaíso,San Felipe de Aconcagua,Santa María,Numero,"LOS LEMUS 0, Santa María",-32.756455,-70.634646
-7865567.55847193,-3950840.31527554,12,2024,1654341,2024/11/30 00:00:00+00,Noviembre,30,Sábado,1899/12/30 00:00:00+00,13:40:00,13,REGION METROPOLITANA,INDEPENDENCIA,COLISION LATERAL,COLISION,URBANA,TRAMO DE VIA RECTA,IMPRUDENCIA DEL CONDUCTOR,NO RESPETAR DERECHO PREFERENTE DE PASO A VEHICULO,BEZANILLA, ,- BEZANILLA,1285, , ,UNIDIRECCIONAL,CONCRETO,BUENO,SECO,DESPEJADO,0,0,0,1,13,131,13108,Metropolitana de Santiago,Santiago,Independencia,Numero,"BEZANILLA 1285, Independencia",-33.417411,-70.657596
-7930126.15245916,-3494328.31198323,13,2024,1654356,2024/11/29 00:00:00+00,Noviembre,29,Viernes,1899/12/30 00:00:00+00,13:30:00,13,REGION COQUIMBO,LA SERENA,COLISION PERPENDICULAR,COLISION,URBANA,TRAMO DE VIA RECTA,IMPRUDENCIA DEL CONDUCTOR,CONDUCCION NO ATENTO CONDICIONES TRANSITO MOMENTO,GUILLERMO ULRIKSEN, ,- GUILLERMO ULRIKSEN,1799, , ,BIDIRECCIONAL CON BANDEJON,ASFALTO,BUENO,SECO,DESPEJADO,0,0,0,1,04,041,04101,Coquimbo,Elqui,La Serena,Numero,"GUILLERMO ULRIKSEN 1799, La Serena",-29.928234,-71.237535
-8139775.0472173,-4400382.71967195,14,2024,1654581,2024/11/12 00:00:00+00,Noviembre,12,Martes,1899/12/30 00:00:00+00,18:45:00,18,REGION BIO BIO,TALCAHUANO,COLISION LATERAL,COLISION,URBANA,TRAMO DE VIA RECTA,IMPRUDENCIA DEL CONDUCTOR,CONDUCCION CAMBIAR SORPRESIVAMENTE PISTA CIRCULACION,COLOMBIA, ,- COLOMBIA,118, , ,BIDIRECCIONAL,CONCRETO,BUENO,SECO,DESPEJADO,0,0,0,0,08,081,08110,Biobío,Concepción,Talcahuano,Numero,"COLOMBIA 118, Talcahuano",-36.721676,-73.120843
-7853626.47628216,-3947453.44999212,15,2024,1654610,2024/11/25 00:00:00+00,Noviembre,25,Lunes,1899/12/30 00:00:00+00,12:40:00,12,REGION METROPOLITANA,LAS CONDES,ATROPELLO,ATROPELLO,URBANA,TRAMO DE VIA RECTA,IMPRUDENCIA DEL CONDUCTOR,CONDUCCION NO ATENTO CONDICIONES TRANSITO MOMENTO,APACHES, ,- APACHES,8263, , ,BIDIRECCIONAL,ASFALTO,BUENO,SECO,DESPEJADO,0,0,0,1,13,131,13114,Metropolitana de Santiago,Santiago,Las Condes,Numero,"APACHES 8263, Las Condes",-33.392013,-70.550327
-7912797.71131474,-4087772.63228251,16,2024,1654868,2024/12/05 00:00:00+00,Diciembre,5,Jueves,1899/12/30 00:00:00+00,11:12:00,11,REGION LIB.B.O'HIGGINS,SAN VICENTE,COLISION LATERAL,COLISION,URBANA,TRAMO DE VIA RECTA,IMPRUDENCIA DEL CONDUCTOR,CONDUCCION NO ATENTO CONDICIONES TRANSITO MOMENTO,GERMAN RIESCO, ,- GERMAN RIESCO,1280, , ,BIDIRECCIONAL,ASFALTO,BUENO,SECO,DESPEJADO,0,0,0,1,06,061,06117,Libertador General Bernardo O'Higgins,Cachapoal,San Vicente,Numero,"GERMAN RIESCO 1280, San Vicente",-34.438038,-71.081871
-8051561.7122659,-4506872.45345183,17,2024,1655179,2024/12/02 00:00:00+00,Diciembre,2,Lunes,1899/12/30 00:00:00+00,09:00:00,9,REGION BIO BIO,LOS ANGELES,COLISION LATERAL,COLISION,URBANA,CRUCE SIN SENALIZACION,IMPRUDENCIA DEL CONDUCTOR,CONDUCCION NO ATENTO CONDICIONES TRANSITO MOMENTO,FRANCISCO ENCINA, ,- FRANCISCO ENCINA,1355, , ,BIDIRECCIONAL CON BANDEJON,ASFALTO,BUENO,SECO,DESPEJADO,0,0,0,1,08,083,08301,Biobío,Biobío,Los Angeles,Numero,"FRANCISCO ENCINA 1355, Los Angeles",-37.484612,-72.328409
-7899110.90185335,-4075727.77162024,18,2024,1655325,2024/12/05 00:00:00+00,Diciembre,5,Jueves,1899/12/30 00:00:00+00,16:00:00,16,REGION LIB.B.O'HIGGINS,REQUINOA,COLISION LATERAL,COLISION,URBANA,TRAMO DE VIA RECTA,ALCOHOL EN CONDUCTOR,CONDUCCION EN ESTADO DE EBRIEDAD,TOMAS ARGOMEDO, ,- TOMAS ARGOMEDO,2055, , ,BIDIRECCIONAL,ASFALTO,BUENO,SECO,DESPEJADO,1,0,0,0,06,061,06116,Libertador General Bernardo O'Higgins,Cachapoal,Requínoa,Numero,"TOMAS ARGOMEDO 2055, Requínoa",-34.348753,-70.958921
-7948172.9705492,-3938608.80218882,19,2024,1655634,2024/12/07 00:00:00+00,Diciembre,7,Sábado,1899/12/30 00:00:00+00,17:05:00,17,REGION VALPARAISO,CASABLANCA,COLISION,COLISION,URBANA,TRAMO DE VIA RECTA,IMPRUDENCIA DEL CONDUCTOR,CONDUCCION NO ATENTO CONDICIONES TRANSITO MOMENTO,DIEGO PORTALES, ,- DIEGO PORTALES,792, , ,BIDIRECCIONAL,ASFALTO,BUENO,SECO,DESPEJADO,0,1,0,1,05,051,05102,Valparaíso,Valparaíso,Casablanca,Numero,"DIEGO PORTALES 792, Casablanca",-33.32565,-71.399653
-7851814.98040897,-3950666.09737466,20,2024,1655790,2024/11/29 00:00:00+00,Noviembre,29,Viernes,1899/12/30 00:00:00+00,13:06:00,13,REGION METROPOLITANA,LAS CONDES,COLISION,COLISION,URBANA,TRAMO DE VIA RECTA,IMPRUDENCIA DEL CONDUCTOR,CONDUCCION NO ATENTO CONDICIONES TRANSITO MOMENTO,LAS CONDES, ,- LAS CONDES,7444, , ,BIDIRECCIONAL CON BANDEJON,ASFALTO,BUENO,SECO,DESPEJADO,0,0,0,1,13,131,13114,Metropolitana de Santiago,Santiago,Las Condes,Numero,"LAS CONDES 7444, Las Condes",-33.416105,-70.534054
-7899862.63985885,-3956321.56068396,21,2024,1656014,2024/12/08 00:00:00+00,Diciembre,8,Domingo,1899/12/30 00:00:00+00,04:40:00,4,REGION METROPOLITANA,CURACAVI,COLISION POR ALCANCE,COLISION,RURAL,TRAMO DE VIA RECTA,IMPRUDENCIA DEL CONDUCTOR,CONDUCCION NO ATENTO CONDICIONES TRANSITO MOMENTO, , , ,0,RUTA 68,"24,7",BIDIRECCIONAL,ASFALTO,BUENO,SECO,DESPEJADO,0,0,0,1,13,135,13503,Metropolitana de Santiago,Melipilla,Curacaví,Numero,"RUTA 68 km 24,7",-33.4585,-70.965674
-7913568.69145083,-4087419.52234179,22,2024,1656244,2024/12/07 00:00:00+00,Diciembre,7,Sábado,1899/12/30 00:00:00+00,13:20:00,13,REGION LIB.B.O'HIGGINS,SAN VICENTE,COLISION PERPENDICULAR,COLISION,URBANA,TRAMO DE VIA RECTA,IMPRUDENCIA DEL CONDUCTOR,CONDUCCION NO ATENTO CONDICIONES TRANSITO MOMENTO,GERMAN RIESCO, ,- GERMAN RIESCO,1890, , ,BIDIRECCIONAL,ASFALTO,BUENO,SECO,DESPEJADO,0,0,0,1,06,061,06117,Libertador General Bernardo O'Higgins,Cachapoal,San Vicente,Numero,"GERMAN RIESCO 1890, San Vicente",-34.435422,-71.088797
-7913955.37412911,-4087473.71777466,23,2024,1656266,2024/12/11 00:00:00+00,Diciembre,11,Miércoles,1899/12/30 00:00:00+00,19:50:00,19,REGION LIB.B.O'HIGGINS,SAN VICENTE,COLISION FRONTAL,COLISION,URBANA,TRAMO DE VIA RECTA,IMPRUDENCIA DEL CONDUCTOR,CONDUCCION NO ATENTO CONDICIONES TRANSITO MOMENTO,CENTRAL, ,- CENTRAL,1512, , ,BIDIRECCIONAL,ASFALTO,BUENO,SECO,DESPEJADO,0,1,0,0,06,061,06117,Libertador General Bernardo O'Higgins,Cachapoal,San Vicente,Numero,"CENTRAL 1512, San Vicente",-34.435824,-71.092271
-8143506.78785365,-4947827.43410081,24,2024,1656351,2024/11/24 00:00:00+00,Noviembre,24,Domingo,1899/12/30 00:00:00+00,18:50:00,18,REGION LOS LAGOS,OSORNO,CHOQUE FRENTE/LADO,CHOQUE,URBANA,TRAMO DE VIA RECTA,IMPRUDENCIA DEL CONDUCTOR,CONDUCCION NO ATENTO CONDICIONES TRANSITO MOMENTO,LOS BOLDOS, ,- LOS BOLDOS,948, , ,BIDIRECCIONAL,CONCRETO,REGULAR,SECO,NUBLADO,0,0,0,1,10,103,10301,Los Lagos,Osorno,Osorno,Numero,"LOS BOLDOS 948, Osorno",-40.561165,-73.154366
-7898271.36861448,-4083965.0472464,25,2024,1656621,2024/12/13 00:00:00+00,Diciembre,13,Viernes,1899/12/30 00:00:00+00,13:45:00,13,REGION LIB.B.O'HIGGINS,MALLOA,COLISION LATERAL,COLISION,URBANA,TRAMO DE VIA RECTA,IMPRUDENCIA DEL CONDUCTOR,CONDUCCION NO ATENTO CONDICIONES TRANSITO MOMENTO,SAN PEDRO, ,- SAN PEDRO,315, , ,BIDIRECCIONAL,ASFALTO,BUENO,SECO,DESPEJADO,0,0,0,1,06,061,06109,Libertador General Bernardo O'Higgins,Cachapoal,Malloa,Numero,"SAN PEDRO 315, Malloa",-34.409824,-70.951379
-7959994.50289728,-3751563.02937898,26,2024,1656730,2024/12/11 00:00:00+00,Diciembre,11,Miércoles,1899/12/30 00:00:00+00,21:00:00,21,REGION COQUIMBO,LOS VILOS,COLISION,COLISION,URBANA,ZONA DE TRANSITO CALMADO,IMPRUDENCIA DEL CONDUCTOR,CONDUCCION NO ATENTO CONDICIONES TRANSITO MOMENTO,COSTANERA, ,- COSTANERA,780, , ,BIDIRECCIONAL,CONCRETO,BUENO,SECO,DESPEJADO,0,0,0,1,04,042,04203,Coquimbo,Choapa,Los Vilos,Numero,"COSTANERA 780, Los Vilos",-31.910461,-71.505847
-7877015.72473582,-3963278.24013013,27,2024,1656918,2024/12/15 00:00:00+00,Diciembre,15,Domingo,1899/12/30 00:00:00+00,10:50:00,10,REGION METROPOLITANA,MAIPU,VOLCADURA,VOLCADURA,URBANA,TRAMO DE VIA RECTA,IMPRUDENCIA DEL CONDUCTOR,CONDUCCION NO ATENTO CONDICIONES TRANSITO MOMENTO,5 DE ABRIL, ,- 5 DE ABRIL,231, , ,UNIDIRECCIONAL,ASFALTO,BUENO,SECO,DESPEJADO,0,0,0,1,13,131,13119,Metropolitana de Santiago,Santiago,Maipú,Numero,"5 DE ABRIL 231, Maipú",-33.510622,-70.760436
-7831108.98185944,-3168839.92053835,28,2024,1657285,2024/12/05 00:00:00+00,Diciembre,5,Jueves,1899/12/30 00:00:00+00,15:20:00,15,REGION ATACAMA,COPIAPO,CHOQUE,CHOQUE,URBANA,CICLOVIA,IMPRUDENCIA DEL CONDUCTOR,NO RESPETAR DERECHO PREFERENTE DE PASO A VEHICULO,COPAYAPU, ,- COPAYAPU,485, , ,BIDIRECCIONAL,ASFALTO,BUENO,SECO,DESPEJADO,0,0,0,0,03,031,03101,Atacama,Copiapó,Copiapó,Numero,"COPAYAPU 485, Copiapó",-27.362541,-70.348049
-8081778.63449783,-4687308.69459675,29,2024,1657891,2024/12/11 00:00:00+00,Diciembre,11,Miércoles,1899/12/30 00:00:00+00,18:20:00,18,REGION ARAUCANIA,PADRE LAS CASAS,COLISION,COLISION,URBANA,TRAMO DE VIA RECTA,IMPRUDENCIA DEL CONDUCTOR,CONDUCCION NO ATENTO CONDICIONES TRANSITO MOMENTO, ,MAQUEHUE,- MAQUEHUE,0, , ,BIDIRECCIONAL,ASFALTO,BUENO,SECO,DESPEJADO,0,0,0,1,09,091,09112,La Araucanía,Cautín,Padre Las Casas,Numero," , Padre Las Casas",-38.759699,-72.599853
-7827087.8646817,-3169842.61813638,30,2024,1657897,2024/12/18 00:00:00+00,Diciembre,18,Miércoles,1899/12/30 00:00:00+00,11:45:00,11,REGION ATACAMA,COPIAPO,COLISION FRONTAL,COLISION,URBANA,TRAMO DE VIA RECTA,VELOCIDAD IMPRUDENTE,VELOCIDAD NO RAZONABLE NI PRUDENTE,TOCORNAL, ,- TOCORNAL,1936, , ,BIDIRECCIONAL,ASFALTO,BUENO,SECO,DESPEJADO,0,0,0,1,03,031,03101,Atacama,Copiapó,Copiapó,Numero,"TOCORNAL 1936, Copiapó",-27.37054,-70.311927
-7864263.5515818,-4030033.70957147,31,2024,1657914,2024/12/05 00:00:00+00,Diciembre,5,Jueves,1899/12/30 00:00:00+00,18:40:00,18,REGION LIB.B.O'HIGGINS,MOSTAZAL,CHOQUE LADO/POSTERIOR,CHOQUE,URBANA,TRAMO DE VIA RECTA,IMPRUDENCIA DEL CONDUCTOR,CONDUCIR VEHICULO EN RETROCESO,JOSE TORIBIO MEDINA, ,- JOSE TORIBIO MEDINA,235, , ,BIDIRECCIONAL,ASFALTO,BUENO,SECO,DESPEJADO,0,0,0,1,06,061,06110,Libertador General Bernardo O'Higgins,Cachapoal,Mostazal,Numero,"JOSE TORIBIO MEDINA 235, Mostazal",-34.009172,-70.645881
-8052214.42061937,-4498839.00837847,32,2024,1658210,2024/12/19 00:00:00+00,Diciembre,19,Jueves,1899/12/30 00:00:00+00,07:55:00,7,REGION BIO BIO,LOS ANGELES,COLISION FRONTAL,COLISION,URBANA,TRAMO DE VIA RECTA,IMPRUDENCIA DEL CONDUCTOR,CONDUCCION NO ATENTO CONDICIONES TRANSITO MOMENTO,LAS INDUSTRIAS, ,- LAS INDUSTRIAS,4670, , ,BIDIRECCIONAL,CONCRETO,BUENO,SECO,DESPEJADO,0,0,0,1,08,083,08301,Biobío,Biobío,Los Angeles,Numero,"LAS INDUSTRIAS 4670, Los Angeles",-37.427325,-72.334273
-7930788.16777886,-4159238.95631878,33,2024,1658265,2024/12/08 00:00:00+00,Diciembre,8,Domingo,1899/12/30 00:00:00+00,22:10:00,22,REGION MAULE,CURICO,VOLCADURA,VOLCADURA,URBANA,TRAMO DE VIA RECTA,IMPRUDENCIA DEL CONDUCTOR,CONDUCCION NO ATENTO CONDICIONES TRANSITO MOMENTO,ISLAS AUSTRALES, ,- ISLAS AUSTRALES,2235, , ,BIDIRECCIONAL,ASFALTO,BUENO,SECO,DESPEJADO,0,0,0,1,07,073,07301,Maule,Curicó,Curicó,Numero,"ISLAS AUSTRALES 2235, Curicó",-34.965833,-71.243482
-7912797.71131474,-4087772.63228251,34,2024,1658346,2024/12/21 00:00:00+00,Diciembre,21,Sábado,1899/12/30 00:00:00+00,17:30:00,17,REGION LIB.B.O'HIGGINS,SAN VICENTE,COLISION PERPENDICULAR,COLISION,URBANA,TRAMO DE VIA RECTA,IMPRUDENCIA DEL CONDUCTOR,CONDUCCION NO ATENTO CONDICIONES TRANSITO MOMENTO,GERMAN RIESCO, ,- GERMAN RIESCO,1280, , ,BIDIRECCIONAL,CONCRETO,BUENO,SECO,DESPEJADO,0,0,0,1,06,061,06117,Libertador General Bernardo O'Higgins,Cachapoal,San Vicente,Numero,"GERMAN RIESCO 1280, San Vicente",-34.438038,-71.081871
-7944336.27287642,-4115155.44521395,35,2024,1658366,2024/12/18 00:00:00+00,Diciembre,18,Miércoles,1899/12/30 00:00:00+00,17:50:00,17,REGION LIB.B.O'HIGGINS,SANTA CRUZ,COLISION LATERAL,COLISION,URBANA,TRAMO DE VIA RECTA,IMPRUDENCIA DEL CONDUCTOR,CONDUCCION NO ATENTO CONDICIONES TRANSITO MOMENTO,GENERAL DEL CANTO, ,- GENERAL DEL CANTO,24, , ,UNIDIRECCIONAL,ASFALTO,BUENO,SECO,DESPEJADO,0,0,0,1,06,063,06310,Libertador General Bernardo O'Higgins,Colchagua,Santa Cruz,Numero,"GENERAL DEL CANTO 24, Santa Cruz",-34.640664,-71.365187
-7874384.6126065,-4047793.99631451,36,2024,1658457,2024/12/10 00:00:00+00,Diciembre,10,Martes,1899/12/30 00:00:00+00,10:20:00,10,REGION LIB.B.O'HIGGINS,RANCAGUA,COLISION PERPENDICULAR,COLISION,URBANA,TRAMO DE VIA RECTA,DESOBEDIENCIA A SEÑALIZACION,SENALIZACION DESOBEDECER LUZ ROJA DE SEMAFORO,KENNEDY, ,- KENNEDY,2038, , ,BIDIRECCIONAL CON BANDEJON,CONCRETO,BUENO,SECO,DESPEJADO,0,0,0,1,06,061,06101,Libertador General Bernardo O'Higgins,Cachapoal,Rancagua,Numero,"KENNEDY 2038, Rancagua",-34.141322,-70.736801
-7870208.18300954,-3960014.13065333,37,2024,1658673,2024/12/20 00:00:00+00,Diciembre,20,Viernes,1899/12/30 00:00:00+00,17:50:00,17,REGION METROPOLITANA,CERRILLOS,COLISION PERPENDICULAR,COLISION,URBANA,CRUCE CON SEMAFORO FUNCIONANDO,DESOBEDIENCIA A SEÑALIZACION,SENALIZACION DESOBEDECER LUZ ROJA DE SEMAFORO,PEDRO AGUIRRE CERDA, ,- PEDRO AGUIRRE CERDA,5007, , ,BIDIRECCIONAL CON BANDEJON,ASFALTO,BUENO,SECO,DESPEJADO,0,1,0,0,13,131,13102,Metropolitana de Santiago,Santiago,Cerrillos,Numero,"PEDRO AGUIRRE CERDA 5007, Cerrillos",-33.48617,-70.699283
-8018138.61756766,-4713848.83996112,38,2024,1658743,2024/12/20 00:00:00+00,Diciembre,20,Viernes,1899/12/30 00:00:00+00,18:15:00,18,REGION ARAUCANIA,CUNCO,CHOQUE FRENTE/LADO,CHOQUE,URBANA,TRAMO DE VIA RECTA,IMPRUDENCIA DEL CONDUCTOR,CONDUCCION NO ATENTO CONDICIONES TRANSITO MOMENTO,COLICO SUR, ,- COLICO SUR,1518, , ,BIDIRECCIONAL,CONCRETO,BUENO,SECO,DESPEJADO,0,0,0,1,09,091,09103,La Araucanía,Cautín,Cunco,Numero,"COLICO SUR 1518, Cunco",-38.945367,-72.028165
-8051561.7122659,-4506872.45345183,39,2024,1658776,2024/12/20 00:00:00+00,Diciembre,20,Viernes,1899/12/30 00:00:00+00,18:30:00,18,REGION BIO BIO,LOS ANGELES,COLISION,COLISION,URBANA,TRAMO DE VIA RECTA,IMPRUDENCIA DEL CONDUCTOR,CONDUCCION NO ATENTO CONDICIONES TRANSITO MOMENTO,FRANCISCO ENCINA, ,- FRANCISCO ENCINA,1355, , ,UNIDIRECCIONAL,CONCRETO,BUENO,SECO,DESPEJADO,0,1,0,0,08,083,08301,Biobío,Biobío,Los Angeles,Numero,"FRANCISCO ENCINA 1355, Los Angeles",-37.484612,-72.328409
-7913568.69145083,-4087419.52234179,40,2024,1658844,2024/12/24 00:00:00+00,Diciembre,24,Martes,1899/12/30 00:00:00+00,07:10:00,7,REGION LIB.B.O'HIGGINS,SAN VICENTE,COLISION PERPENDICULAR,COLISION,URBANA,TRAMO DE VIA RECTA,IMPRUDENCIA DEL CONDUCTOR,CONDUCCION NO ATENTO CONDICIONES TRANSITO MOMENTO,GERMAN RIESCO, ,- GERMAN RIESCO,1890, , ,BIDIRECCIONAL,CONCRETO,BUENO,SECO,DESPEJADO,0,0,1,0,06,061,06117,Libertador General Bernardo O'Higgins,Cachapoal,San Vicente,Numero,"GERMAN RIESCO 1890, San Vicente",-34.435422,-71.088797
-7871727.41284357,-3948563.72739626,41,2024,1659360,2024/12/03 00:00:00+00,Diciembre,3,Martes,1899/12/30 00:00:00+00,13:30:00,13,REGION METROPOLITANA,RENCA,CHOQUE,CHOQUE,URBANA,TRAMO DE VIA RECTA,IMPRUDENCIA DEL CONDUCTOR,CONDUCCION NO ATENTO CONDICIONES TRANSITO MOMENTO,ROSITA O'HIGGINS, ,- ROSITA O'HIGGINS,1522, , ,UNIDIRECCIONAL,ASFALTO,BUENO,SECO,DESPEJADO,0,0,0,0,13,131,13128,Metropolitana de Santiago,Santiago,Renca,Numero,"ROSITA O'HIGGINS 1522, Renca",-33.40034,-70.71293
-7862289.65081294,-3956646.61561645,42,2024,1659478,2024/12/18 00:00:00+00,Diciembre,18,Miércoles,1899/12/30 00:00:00+00,17:30:00,17,REGION METROPOLITANA,NUNOA,COLISION LATERAL,COLISION,URBANA,TRAMO DE VIA RECTA,IMPRUDENCIA DEL CONDUCTOR,CONDUCCION NO ATENTO CONDICIONES TRANSITO MOMENTO,VICUNA MACKENNA, ,- VICUNA MACKENNA,1432, , ,BIDIRECCIONAL,CONCRETO,BUENO,SECO,DESPEJADO,0,1,0,0,13,131,13120,Metropolitana de Santiago,Santiago,Ñuñoa,Numero,"VICUNA MACKENNA 1432, Ñuñoa",-33.460936,-70.62815
-7862896.98170182,-3949350.31158573,43,2024,1659648,2024/12/23 00:00:00+00,Diciembre,23,Lunes,1899/12/30 00:00:00+00,22:20:00,22,REGION METROPOLITANA,RECOLETA,COLISION POR ALCANCE,COLISION,URBANA,CRUCE CON SEMAFORO FUNCIONANDO,IMPRUDENCIA DEL CONDUCTOR,CONDUCCION CAMBIAR SORPRESIVAMENTE PISTA CIRCULACION,LA PAZ, ,- LA PAZ,218, , ,UNIDIRECCIONAL,ASFALTO,BUENO,SECO,DESPEJADO,0,0,0,1,13,131,13127,Metropolitana de Santiago,Santiago,Recoleta,Numero,"LA PAZ 218, Recoleta",-33.406239,-70.633605
-7916003.68234842,-4114212.11534563,44,2024,1659649,2024/12/25 00:00:00+00,Diciembre,25,Miércoles,1899/12/30 00:00:00+00,19:50:00,19,REGION LIB.B.O'HIGGINS,PLACILLA,COLISION LATERAL,COLISION,RURAL,TRAMO DE VIA RECTA,ALCOHOL EN CONDUCTOR,CONDUCCION EN ESTADO DE EBRIEDAD,LA TUNA, ,- LA TUNA,1, , ,BIDIRECCIONAL,ASFALTO,BUENO,SECO,DESPEJADO,1,0,0,0,06,063,06308,Libertador General Bernardo O'Higgins,Colchagua,Placilla,Numero,"LA TUNA 1, Placilla",-34.633692,-71.110671
-7861788.3322136,-3958694.30524037,45,2024,1659893,2024/12/27 00:00:00+00,Diciembre,27,Viernes,1899/12/30 00:00:00+00,21:15:00,21,REGION METROPOLITANA,SAN JOAQUIN,COLISION FRONTAL,COLISION,URBANA,TRAMO DE VIA RECTA,IMPRUDENCIA DEL CONDUCTOR,CONDUCCION NO ATENTO CONDICIONES TRANSITO MOMENTO,VICUNA MACKENNA, ,- VICUNA MACKENNA,2585, , ,UNIDIRECCIONAL,CONCRETO,BUENO,SECO,DESPEJADO,0,0,0,1,13,131,13129,Metropolitana de Santiago,Santiago,San Joaquín,Numero,"VICUNA MACKENNA 2585, San Joaquín",-33.476281,-70.623646
-8136864.6158507,-4403954.55572596,46,2024,1659948,2024/12/26 00:00:00+00,Diciembre,26,Jueves,1899/12/30 00:00:00+00,00:10:00,0,REGION BIO BIO,TALCAHUANO,COLISION LATERAL,COLISION,URBANA,CRUCE CON SEMAFORO FUNCIONANDO,DESOBEDIENCIA A SEÑALIZACION,SENALIZACION DESOBEDECER LUZ ROJA DE SEMAFORO,CRISTOBAL COLON, ,- CRISTOBAL COLON,3594, , ,BIDIRECCIONAL CON BANDEJON,CONCRETO,BUENO,SECO,DESPEJADO,0,0,0,1,08,081,08110,Biobío,Concepción,Talcahuano,Numero,"CRISTOBAL COLON 3594, Talcahuano",-36.747391,-73.094698
-8136178.09695148,-4405795.24353266,47,2024,1659952,2024/12/26 00:00:00+00,Diciembre,26,Jueves,1899/12/30 00:00:00+00,18:30:00,18,REGION BIO BIO,TALCAHUANO,COLISION LATERAL,COLISION,URBANA,CRUCE CON SEMAFORO FUNCIONANDO,DESOBEDIENCIA A SEÑALIZACION,SENALIZACION DESOBEDECER LUZ ROJA DE SEMAFORO,CRISTOBAL COLON, ,- CRISTOBAL COLON,5335, , ,BIDIRECCIONAL CON BANDEJON,CONCRETO,BUENO,SECO,DESPEJADO,0,0,0,1,08,081,08110,Biobío,Concepción,Talcahuano,Numero,"CRISTOBAL COLON 5335, Talcahuano",-36.760639,-73.088531
-7868700.60995146,-3875421.88460608,48,2024,1660011,2024/12/29 00:00:00+00,Diciembre,29,Domingo,1899/12/30 00:00:00+00,16:30:00,16,REGION VALPARAISO,RINCONADA,VOLCADURA,VOLCADURA,URBANA,TRAMO DE VIA RECTA,ALCOHOL EN CONDUCTOR,CONDUCCION BAJO LA INFLUENCIA DEL ALCOHOL,CARRETERA GENERAL SAN MARTIN, ,- CARRETERA GENERAL SAN MARTIN,2458, , ,BIDIRECCIONAL,ASFALTO,BUENO,SECO,DESPEJADO,0,0,0,1,05,053,05303,Valparaíso,Los Andes,Rinconada,Numero,"CARRETERA GENERAL SAN MARTIN 2458, Rinconada",-32.850083,-70.68574
-7941753.35429425,-3902104.07228377,49,2024,1660167,2024/12/22 00:00:00+00,Diciembre,22,Domingo,1899/12/30 00:00:00+00,08:00:00,8,REGION VALPARAISO,VILLA ALEMANA,COLISION LATERAL,COLISION,URBANA,TRAMO DE VIA RECTA,IMPRUDENCIA DEL CONDUCTOR,CONDUCCION NO ATENTO CONDICIONES TRANSITO MOMENTO,MANUEL MONTT, ,- MANUEL MONTT,75, , ,BIDIRECCIONAL,ASFALTO,BUENO,SECO,DESPEJADO,0,0,0,1,05,058,05804,Valparaíso,Marga Marga,Villa Alemana,Numero,"MANUEL MONTT 75, Villa Alemana",-33.051217,-71.341984
-8009697.68477486,-4360867.89091726,50,2024,1660200,2024/12/26 00:00:00+00,Diciembre,26,Jueves,1899/12/30 00:00:00+00,17:20:00,17,REGION NUBLE,SAN CARLOS,CHOQUE FRONTAL,CHOQUE,URBANA,TRAMO DE VIA RECTA,IMPRUDENCIA DEL CONDUCTOR,CONDUCCION SIN MANTENER DISTANCIA RAZONABLE NI PRUDENTE,SAN CAMILO, ,- SAN CAMILO,1, , ,BIDIRECCIONAL,ASFALTO,BUENO,SECO,DESPEJADO,0,0,0,1,16,163,16301,Ñuble,Punilla,San Carlos,Numero,"SAN CAMILO 1, San Carlos",-36.436626,-71.952339
-7870038.31623482,-3959453.16909278,51,2024,1660339,2024/12/29 00:00:00+00,Diciembre,29,Domingo,1899/12/30 00:00:00+00,17:00:00,17,REGION METROPOLITANA,CERRILLOS,COLISION POR ALCANCE,COLISION,URBANA,TRAMO DE VIA RECTA,IMPRUDENCIA DEL CONDUCTOR,CONDUCCION NO ATENTO CONDICIONES TRANSITO MOMENTO,SUIZA, ,- SUIZA,251, , ,BIDIRECCIONAL CON BANDEJON,ASFALTO,BUENO,SECO,DESPEJADO,0,0,0,1,13,131,13102,Metropolitana de Santiago,Santiago,Cerrillos,Numero,"SUIZA 251, Cerrillos",-33.481967,-70.697757
-8161385.33682628,-4473517.62012861,52,2024,1660549,2024/12/31 00:00:00+00,Diciembre,31,Martes,1899/12/30 00:00:00+00,09:55:00,9,REGION BIO BIO,ARAUCO,CHOQUE,CHOQUE,URBANA,TRAMO DE VIA RECTA,IMPRUDENCIA DEL CONDUCTOR,CONDUCCION NO ATENTO CONDICIONES TRANSITO MOMENTO,ESMERALDA, ,- ESMERALDA,205, , ,UNIDIRECCIONAL,ASFALTO,BUENO,SECO,DESPEJADO,0,0,0,1,08,082,08202,Biobío,Arauco,Arauco,Numero,"ESMERALDA 205, Arauco",-37.246471,-73.314972
-7850289.5482314,-3974992.33360503,53,2024,1660613,2024/12/28 00:00:00+00,Diciembre,28,Sábado,1899/12/30 00:00:00+00,16:00:00,16,REGION METROPOLITANA,PUENTE ALTO,COLISION LATERAL,COLISION,URBANA,TRAMO DE VIA CURVA VERTICAL,IMPRUDENCIA DEL CONDUCTOR,ADELANTAMIENTO SIN EL ESPACIO O TIEMPO SUFICIENTE,CAMINO A SAN JOSE DE MAIPO, ,- CAMINO A SAN JOSE DE MAIPO,8000, , ,BIDIRECCIONAL,ASFALTO,BUENO,SECO,DESPEJADO,0,0,0,1,13,132,13201,Metropolitana de Santiago,Cordillera,Puente Alto,Numero,"CAMINO A SAN JOSE DE MAIPO 8000, Puente Alto",-33.598316,-70.520351
-8136292.54732522,-4405489.94514999,54,2024,1660747,2024/12/28 00:00:00+00,Diciembre,28,Sábado,1899/12/30 00:00:00+00,23:00:00,23,REGION BIO BIO,TALCAHUANO,COLISION LATERAL,COLISION,URBANA,TRAMO DE VIA RECTA,IMPRUDENCIA DEL CONDUCTOR,CONDUCCION SIN MANTENER DISTANCIA RAZONABLE NI PRUDENTE,GOMEZ CARRENO, ,- GOMEZ CARRENO,5125, , ,BIDIRECCIONAL,CONCRETO,BUENO,SECO,DESPEJADO,0,0,1,0,08,081,08110,Biobío,Concepción,Talcahuano,Numero,"GOMEZ CARRENO 5125, Talcahuano",-36.758442,-73.08956
-8134234.8572662,-4584579.92891646,55,2024,1661218,2024/12/31 00:00:00+00,Diciembre,31,Martes,1899/12/30 00:00:00+00,20:00:00,20,REGION ARAUCANIA,PUREN,CHOQUE FRONTAL,CHOQUE,URBANA,TRAMO DE VIA RECTA,ALCOHOL EN CONDUCTOR,CONDUCCION EN ESTADO DE EBRIEDAD,NAHUELCO, ,- NAHUELCO,1250, , ,BIDIRECCIONAL,CONCRETO,BUENO,SECO,DESPEJADO,0,0,0,0,09,092,09208,La Araucanía,Malleco,Purén,Numero,"NAHUELCO 1250, Purén",-38.036476,-73.071075
-7931118.8456881,-3896710.95904318,56,2024,1661251,2024/12/29 00:00:00+00,Diciembre,29,Domingo,1899/12/30 00:00:00+00,21:30:00,21,REGION VALPARAISO,LIMACHE,COLISION LATERAL,COLISION,URBANA,TRAMO DE VIA RECTA,IMPRUDENCIA DEL CONDUCTOR,ADELANTAMIENTO SIN EL ESPACIO O TIEMPO SUFICIENTE,REPUBLICA, ,- REPUBLICA,2184, , ,BIDIRECCIONAL,ASFALTO,BUENO,SECO,DESPEJADO,0,1,0,0,05,058,05802,Valparaíso,Marga Marga,Limache,Numero,"REPUBLICA 2184, Limache",-33.0106,-71.246453
-7925936.47367207,-4116393.637206,57,2024,1661303,2024/12/24 00:00:00+00,Diciembre,24,Martes,1899/12/30 00:00:00+00,09:40:00,9,REGION LIB.B.O'HIGGINS,NANCAGUA,COLISION LATERAL,COLISION,URBANA,TRAMO DE VIA RECTA,IMPRUDENCIA DEL CONDUCTOR,CONDUCCION NO ATENTO CONDICIONES TRANSITO MOMENTO,ARMANDO JARAMILLO, ,- ARMANDO JARAMILLO,632, , ,BIDIRECCIONAL,ASFALTO,BUENO,SECO,DESPEJADO,0,0,0,1,06,063,06305,Libertador General Bernardo O'Higgins,Colchagua,Nancagua,Numero,"ARMANDO JARAMILLO 632, Nancagua",-34.649815,-71.199899
-7866562.52520109,-3944917.11641364,58,2024,1661644,2024/12/29 00:00:00+00,Diciembre,29,Domingo,1899/12/30 00:00:00+00,00:15:00,0,REGION METROPOLITANA,RENCA,COLISION,COLISION,URBANA,TRAMO DE VIA RECTA,IMPRUDENCIA DEL CONDUCTOR,CONDUCCION CONTRA SENTIDO DEL TRANSITO,AMERICO VESPUCIO, ,- AMERICO VESPUCIO,19200, , ,UNIDIRECCIONAL,ADOQUIN,BUENO,SECO,DESPEJADO,1,0,0,0,13,131,13128,Metropolitana de Santiago,Santiago,Renca,Numero,"AMERICO VESPUCIO 19200, Renca",-33.372988,-70.666533
-7873642.30935086,-3952894.71272892,59,2024,1661821,2024/11/29 00:00:00+00,Noviembre,29,Viernes,1899/12/30 00:00:00+00,19:30:00,19,REGION METROPOLITANA,CERRO NAVIA,CHOQUE FRENTE/FRENTE,CHOQUE,URBANA,TRAMO DE VIA RECTA,IMPRUDENCIA DEL CONDUCTOR,CONDUCCION CONTRA SENTIDO DEL TRANSITO,LOS MEMBRILLOS, ,- LOS MEMBRILLOS,6595, , ,UNIDIRECCIONAL,ASFALTO,BUENO,SECO,DESPEJADO,0,0,0,0,13,131,13103,Metropolitana de Santiago,Santiago,Cerro Navia,Numero,"LOS MEMBRILLOS 6595, Cerro Navia",-33.432814,-70.730132
-7671859.51102336,-2563575.81605204,60,2024,1661860,2024/10/29 00:00:00+00,Octubre,29,Martes,1899/12/30 00:00:00+00,18:30:00,18,REGION ANTOFAGASTA,CALAMA,COLISION,COLISION,URBANA,PASO PARA PEATONES,IMPRUDENCIA DEL CONDUCTOR,CONDUCCION NO ATENTO CONDICIONES TRANSITO MOMENTO,CIRCUNVALACION, ,- CIRCUNVALACION,1472, , ,BIDIRECCIONAL CON BANDEJON,ASFALTO,BUENO,SECO,DESPEJADO,0,0,0,1,02,022,02201,Antofagasta,El Loa,Calama,Numero,"CIRCUNVALACION 1472, Calama",-22.432865,-68.917487
-7858509.17373542,-3957088.69314581,61,2024,1662098,2024/12/03 00:00:00+00,Diciembre,3,Martes,1899/12/30 00:00:00+00,08:50:00,8,REGION METROPOLITANA,NUNOA,COLISION,COLISION,URBANA,ACERA O BERMA,IMPRUDENCIA DEL CONDUCTOR,CONDUCCION NO ATENTO CONDICIONES TRANSITO MOMENTO,DR JOHOW, ,- DR JOHOW,995, , ,BIDIRECCIONAL,ASFALTO,BUENO,SECO,DESPEJADO,0,0,0,0,13,131,13120,Metropolitana de Santiago,Santiago,Ñuñoa,Numero,"DR JOHOW 995, Ñuñoa",-33.464249,-70.594189
-8115164.65556436,-5075281.41029785,62,2024,1582795,2024/01/03 00:00:00+00,Enero,3,Miércoles,1899/12/30 00:00:00+00,20:30:00,20,REGION LOS LAGOS,PUERTO MONTT,COLISION LATERAL,COLISION,RURAL,TRAMO DE VIA RECTA,IMPRUDENCIA DEL CONDUCTOR,CONDUCCION CAMBIAR SORPRESIVAMENTE PISTA CIRCULACION, , , ,0,V-629,1,BIDIRECCIONAL,ASFALTO,BUENO,SECO,DESPEJADO,0,0,0,1,10,101,10101,Los Lagos,Llanquihue,Puerto Montt,Ruta,V-629 km 1,-41.425329,-72.899764
-8049947.72427568,-4293337.67813698,63,2024,1584628,2024/01/04 00:00:00+00,Enero,4,Jueves,1899/12/30 00:00:00+00,19:30:00,19,REGION MAULE,CAUQUENES,CHOQUE FRONTAL,CHOQUE,RURAL,TRAMO DE VIA RECTA,VELOCIDAD IMPRUDENTE,VELOCIDAD NO RAZONABLE NI PRUDENTE, , , ,0,M-500,1,BIDIRECCIONAL,CONCRETO,REGULAR,SECO,DESPEJADO,0,0,1,0,07,072,07201,Maule,Cauquenes,Cauquenes,Ruta,M-500 km 1,-35.947048,-72.313911
-7931981.22774226,-4150409.25820812,64,2024,1584286,2024/01/07 00:00:00+00,Enero,7,Domingo,1899/12/30 00:00:00+00,21:00:00,21,REGION MAULE,TENO,COLISION,COLISION,RURAL,TRAMO DE VIA RECTA,IMPRUDENCIA DEL CONDUCTOR,ADELANTAMIENTO SIN EL ESPACIO O TIEMPO SUFICIENTE, , , ,0,J-460,4,BIDIRECCIONAL,ASFALTO,REGULAR,SECO,DESPEJADO,0,0,0,1,07,073,07308,Maule,Curicó,Teno,Ruta,J-460 km 4,-34.900806,-71.2542
-8017891.03765454,-4389211.70107706,65,2024,1585531,2024/01/15 00:00:00+00,Enero,15,Lunes,1899/12/30 00:00:00+00,19:10:00,19,REGION NUBLE,CHILLAN,CHOQUE FRENTE/LADO,CHOQUE,RURAL,TRAMO DE VIA RECTA,IMPRUDENCIA DEL CONDUCTOR,NO RESPETAR DERECHO PREFERENTE DE PASO A VEHICULO, , , ,0,N-55,"7,5",BIDIRECCIONAL,ASFALTO,BUENO,SECO,DESPEJADO,0,0,0,0,16,161,16101,Ñuble,Diguillín,Chillán,Ruta,"N-55 km 7,5",-36.641198,-72.025941
-8048168.88819413,-4658926.66307998,66,2024,1585079,2024/01/15 00:00:00+00,Enero,15,Lunes,1899/12/30 00:00:00+00,19:30:00,19,REGION ARAUCANIA,LAUTARO,COLISION LATERAL,COLISION,RURAL,TRAMO DE VIA CURVA HORIZONTAL,ALCOHOL EN CONDUCTOR,CONDUCCION BAJO LA INFLUENCIA DEL ALCOHOL, , , ,0,S-183,2,BIDIRECCIONAL,RIPIO,REGULAR, ,DESPEJADO,0,0,0,2,09,091,09108,La Araucanía,Cautín,Lautaro,Ruta,S-183 km 2,-38.560609,-72.297931
-8036383.27866798,-5699983.09682252,67,2024,1585725,2024/01/18 00:00:00+00,Enero,18,Jueves,1899/12/30 00:00:00+00,09:25:00,9,REGION AYSEN DEL GRL. CARLOS IBANEZ DEL CAMPO,COYHAIQUE,CHOQUE FRENTE/POSTERIOR,CHOQUE,RURAL,OTROS NO CONSIDERADOS,IMPRUDENCIA DEL CONDUCTOR,CONDUCCION NO ATENTO CONDICIONES TRANSITO MOMENTO, , , ,0,240 CH,"7,4",BIDIRECCIONAL,CONCRETO,BUENO,SECO,NUBLADO,0,0,1,0,11,111,11101,Aysén del General Carlos Ibáñez del Campo,Coihaique,Coihaique,Ruta,"240 CH km 7,4",-45.496224,-72.192059
-7932940.05984189,-4132717.15058651,68,2024,1586522,2024/01/22 00:00:00+00,Enero,22,Lunes,1899/12/30 00:00:00+00,09:00:00,9,REGION LIB.B.O'HIGGINS,CHEPICA,COLISION LATERAL,COLISION,RURAL,TRAMO DE VIA RECTA,IMPRUDENCIA DEL CONDUCTOR,CONDUCCION NO ATENTO CONDICIONES TRANSITO MOMENTO, , , ,0,I-790,3,BIDIRECCIONAL,ASFALTO,REGULAR,SECO,DESPEJADO,0,1,0,0,06,063,06302,Libertador General Bernardo O'Higgins,Colchagua,Chépica,Ruta,I-790 km 3,-34.770357,-71.262813
-7872926.29297958,-4128878.0979637,69,2024,1588181,2024/01/23 00:00:00+00,Enero,23,Martes,1899/12/30 00:00:00+00,07:50:00,7,REGION LIB.B.O'HIGGINS,SAN FERNANDO,COLISION LATERAL,COLISION,RURAL,TRAMO DE VIA RECTA,IMPRUDENCIA DEL CONDUCTOR,CONDUCCION NO ATENTO CONDICIONES TRANSITO MOMENTO, , , ,0,I-45,34,BIDIRECCIONAL,ASFALTO,BUENO,SECO,DESPEJADO,0,1,0,0,06,063,06301,Libertador General Bernardo O'Higgins,Colchagua,San Fernando,Ruta,I-45 km 34,-34.742023,-70.7237
-7821526.19891878,-2116532.9669741,70,2024,1587068,2024/01/25 00:00:00+00,Enero,25,Jueves,1899/12/30 00:00:00+00,07:30:00,7,REGION ARICA Y PARINACOTA,CAMARONES,COLISION LATERAL,COLISION,RURAL,TRAMO DE VIA RECTA,IMPRUDENCIA DEL CONDUCTOR,CONDUCCION NO ATENTO CONDICIONES TRANSITO MOMENTO, , , ,0,RUTA 5 NORTE,2037,BIDIRECCIONAL,ASFALTO,BUENO,SECO,DESPEJADO,0,1,0,1,15,151,15102,Arica y Parinacota,Arica,Camarones,Ruta,RUTA 5 NORTE km 2037,-18.673497,-70.261965
-7989400.51981248,-4318879.00632358,71,2024,1588652,2024/01/25 00:00:00+00,Enero,25,Jueves,1899/12/30 00:00:00+00,15:30:00,15,REGION MAULE,RETIRO,COLISION POR ALCANCE,COLISION,RURAL,TRAMO DE VIA RECTA,IMPRUDENCIA DEL CONDUCTOR,CONDUCCION CAMBIAR SORPRESIVAMENTE PISTA CIRCULACION, , , ,0,L-645,5,BIDIRECCIONAL,ASFALTO,BUENO,SECO,DESPEJADO,0,0,1,0,07,074,07405,Maule,Linares,Retiro,Ruta,L-645 km 5,-36.132576,-71.770006
-7881525.99207918,-4062573.04137849,72,2024,1587931,2024/01/25 00:00:00+00,Enero,25,Jueves,1899/12/30 00:00:00+00,22:00:00,22,REGION LIB.B.O'HIGGINS,MALLOA,COLISION,COLISION,RURAL,ACERA O BERMA,IMPRUDENCIA DEL CONDUCTOR,ADELANTAMIENTO POR LA BERMA, , , ,0,RUTA 5 SUR,96,BIDIRECCIONAL CON BANDEJON,ASFALTO,BUENO,SECO,DESPEJADO,0,0,0,0,06,061,06109,Libertador General Bernardo O'Higgins,Cachapoal,Malloa,Ruta,RUTA 5 SUR km 96,-34.251133,-70.800953
-8033793.49794052,-4789488.51428413,73,2024,1588024,2024/01/26 00:00:00+00,Enero,26,Viernes,1899/12/30 00:00:00+00,11:15:00,11,REGION ARAUCANIA,VILLARRICA,CHOQUE FRENTE/LADO,CHOQUE,RURAL,CRUCE CON SENAL PARE,VELOCIDAD IMPRUDENTE,VELOCIDAD NO RAZONABLE NI PRUDENTE, , , ,0,"S-95-T, T-241, T-243, T-95-S","23,9",BIDIRECCIONAL,ASFALTO,BUENO,SECO,DESPEJADO,0,0,0,1,09,091,09120,La Araucanía,Cautín,Villarrica,Ruta,"S-95-T, T-241, T-243, T-95-S km 23,9",-39.471859,-72.168795
-8023444.59155504,-4425053.02192855,74,2024,1588578,2024/01/27 00:00:00+00,Enero,27,Sábado,1899/12/30 00:00:00+00,20:20:00,20,REGION NUBLE,EL CARMEN,COLISION POR ALCANCE,COLISION,RURAL,TRAMO DE VIA RECTA,IMPRUDENCIA DEL CONDUCTOR,CONDUCCION SIN MANTENER DISTANCIA RAZONABLE NI PRUDENTE, , , ,0,N-77,1,BIDIRECCIONAL,ASFALTO,BUENO,SECO,DESPEJADO,0,0,0,1,16,161,16104,Ñuble,Diguillín,El Carmen,Ruta,N-77 km 1,-36.899108,-72.075829
-7950813.27203569,-3533120.74502167,75,2024,1587643,2024/01/28 00:00:00+00,Enero,28,Domingo,1899/12/30 00:00:00+00,23:00:00,23,REGION COQUIMBO,COQUIMBO,COLISION POR ALCANCE,COLISION,RURAL,TRAMO DE VIA RECTA,IMPRUDENCIA DEL CONDUCTOR,CONDUCCION SIN MANTENER DISTANCIA RAZONABLE NI PRUDENTE, , , ,0,D-420,5,BIDIRECCIONAL,ASFALTO,BUENO,SECO,DESPEJADO,0,0,1,0,04,041,04102,Coquimbo,Elqui,Coquimbo,Ruta,D-420 km 5,-30.229784,-71.423371
-7901926.96861156,-3874686.00421079,76,2024,1589617,2024/02/01 00:00:00+00,Febrero,1,Jueves,1899/12/30 00:00:00+00,04:45:00,4,REGION VALPARAISO,LLAY LLAY,COLISION,COLISION,RURAL,TRAMO DE VIA CURVA HORIZONTAL,IMPRUDENCIA DEL CONDUCTOR,CONDUCCION NO ATENTO CONDICIONES TRANSITO MOMENTO, , , ,0,RUTA 5 NORTE,88,BIDIRECCIONAL,ASFALTO,BUENO,SECO,DESPEJADO,0,1,0,0,05,057,05703,Valparaíso,San Felipe de Aconcagua,Llaillay,Ruta,RUTA 5 NORTE km 88,-32.84453,-70.984218
-7957539.33824742,-3538339.74087434,77,2024,1588626,2024/02/04 00:00:00+00,Febrero,4,Domingo,1899/12/30 00:00:00+00,01:00:00,1,REGION COQUIMBO,COQUIMBO,COLISION LATERAL,COLISION,RURAL,TRAMO DE VIA RECTA,IMPRUDENCIA DEL CONDUCTOR,CONDUCCION NO ATENTO CONDICIONES TRANSITO MOMENTO, , , ,0,D-440,11,BIDIRECCIONAL,ASFALTO,BUENO,SECO,NUBLADO,1,0,0,0,04,041,04102,Coquimbo,Elqui,Coquimbo,Ruta,D-440 km 11,-30.270283,-71.483792
-7988113.32786502,-4280332.81585755,78,2024,1591712,2024/02/04 00:00:00+00,Febrero,4,Domingo,1899/12/30 00:00:00+00,03:30:00,3,REGION MAULE,LONGAVI,VOLCADURA,VOLCADURA,RURAL,TRAMO DE VIA RECTA,VELOCIDAD IMPRUDENTE,VELOCIDAD NO RAZONABLE NI PRUDENTE, , , ,0,L-40,13,BIDIRECCIONAL,ASFALTO,BUENO,SECO,DESPEJADO,0,1,0,0,07,074,07403,Maule,Linares,Longaví,Ruta,L-40 km 13,-35.852415,-71.758443
-7936720.64326292,-4168954.98772808,79,2024,1593893,2024/02/05 00:00:00+00,Febrero,5,Lunes,1899/12/30 00:00:00+00,19:00:00,19,REGION MAULE,TALCA,COLISION LATERAL,COLISION,RURAL,TRAMO DE VIA RECTA,IMPRUDENCIA DEL CONDUCTOR,CONDUCCION NO ATENTO CONDICIONES TRANSITO MOMENTO, , , ,0,"K-60, K-16",2,BIDIRECCIONAL,ASFALTO,BUENO,SECO,DESPEJADO,0,0,0,0,07,071,07101,Maule,Talca,Talca,Ruta,"K-60, K-16 km 2",-35.037328,-71.296775
-7911577.71756714,-4148775.61729014,80,2024,1589357,2024/02/06 00:00:00+00,Febrero,6,Martes,1899/12/30 00:00:00+00,10:40:00,10,REGION MAULE,TENO,COLISION,COLISION,RURAL,TRAMO DE VIA RECTA,IMPRUDENCIA DEL CONDUCTOR,CONDUCCION NO ATENTO CONDICIONES TRANSITO MOMENTO, , , ,0,J-25,6,BIDIRECCIONAL,ASFALTO,BUENO,SECO,DESPEJADO,0,1,0,0,07,073,07308,Maule,Curicó,Teno,Ruta,J-25 km 6,-34.888769,-71.070912
-8103330.76571753,-4688212.44512204,81,2024,1589433,2024/02/06 00:00:00+00,Febrero,6,Martes,1899/12/30 00:00:00+00,21:30:00,21,REGION ARAUCANIA,TEMUCO,COLISION POR ALCANCE,COLISION,RURAL,TRAMO DE VIA RECTA,IMPRUDENCIA DEL CONDUCTOR,CONDUCCION NO ATENTO CONDICIONES TRANSITO MOMENTO, , , ,0,"S-30, S-40",17,BIDIRECCIONAL,CONCRETO,BUENO,MOJADO,LLUVIA,0,1,0,0,09,091,09101,La Araucanía,Cautín,Temuco,Ruta,"S-30, S-40 km 17",-38.766029,-72.793459
-7935768.37717648,-3497258.20172398,82,2024,1590346,2024/02/07 00:00:00+00,Febrero,7,Miércoles,1899/12/30 00:00:00+00,10:10:00,10,REGION COQUIMBO,COQUIMBO,COLISION POR ALCANCE,COLISION,RURAL,CRUCE CON SENAL CEDA EL PASO,IMPRUDENCIA DEL CONDUCTOR,CONDUCCION NO ATENTO CONDICIONES TRANSITO MOMENTO, , , ,0,RUTA 5 NORTE,"463,8",BIDIRECCIONAL CON BANDEJON,ASFALTO,BUENO,SECO,DESPEJADO,0,0,0,1,04,041,04102,Coquimbo,Elqui,Coquimbo,Ruta,"RUTA 5 NORTE km 463,8",-29.951041,-71.28822
-7967622.61174853,-4048075.75861448,83,2024,1590155,2024/02/07 00:00:00+00,Febrero,7,Miércoles,1899/12/30 00:00:00+00,19:00:00,19,REGION LIB.B.O'HIGGINS,LITUECHE,COLISION,COLISION,RURAL,TRAMO DE VIA RECTA,IMPRUDENCIA DEL CONDUCTOR,CONDUCCION CAMBIAR SORPRESIVAMENTE PISTA CIRCULACION, , , ,0,I-134,"1,3",BIDIRECCIONAL,ASFALTO,BUENO,SECO,DESPEJADO,0,1,0,0,06,062,06203,Libertador General Bernardo O'Higgins,Cardenal Caro,Litueche,Ruta,"I-134 km 1,3",-34.143417,-71.574372
-7595014.28939534,-2625173.12445712,84,2024,1593297,2024/02/07 00:00:00+00,Febrero,7,Miércoles,1899/12/30 00:00:00+00,22:30:00,22,REGION ANTOFAGASTA,SAN PEDRO ATACAMA,COLISION POR ALCANCE,COLISION,RURAL,TRAMO DE VIA RECTA,ALCOHOL EN CONDUCTOR,CONDUCCION BAJO LA INFLUENCIA DEL ALCOHOL, , , ,0,23 CH,99,BIDIRECCIONAL,ASFALTO,BUENO,SECO,DESPEJADO,0,0,0,1,02,022,02203,Antofagasta,El Loa,San Pedro de Atacama,Ruta,23 CH km 99,-22.943382,-68.227174
-8116337.81937292,-5076212.08252516,85,2024,1590586,2024/02/08 00:00:00+00,Febrero,8,Jueves,1899/12/30 00:00:00+00,17:35:00,17,REGION LOS LAGOS,PUERTO VARAS,COLISION LATERAL,COLISION,RURAL,TRAMO DE VIA CURVA HORIZONTAL,IMPRUDENCIA DEL CONDUCTOR,CONDUCCION NO ATENTO CONDICIONES TRANSITO MOMENTO, , , ,0,V-505,15,BIDIRECCIONAL,ASFALTO,BUENO,SECO,DESPEJADO,0,0,1,0,10,101,10109,Los Lagos,Llanquihue,Puerto Varas,Ruta,V-505 km 15,-41.431597,-72.910303
-8077367.35520642,-4694477.29581453,86,2024,1590312,2024/02/09 00:00:00+00,Febrero,9,Viernes,1899/12/30 00:00:00+00,21:40:00,21,REGION ARAUCANIA,PADRE LAS CASAS,COLISION FRONTAL,COLISION,RURAL,TRAMO DE VIA RECTA,IMPRUDENCIA DEL CONDUCTOR,CONDUCCION NO ATENTO CONDICIONES TRANSITO MOMENTO, , , ,0,"S-51, S-61",7,BIDIRECCIONAL,CONCRETO,BUENO,SECO,DESPEJADO,0,0,0,1,09,091,09112,La Araucanía,Cautín,Padre Las Casas,Ruta,"S-51, S-61 km 7",-38.809896,-72.560226
-7934837.81775622,-4116471.24089156,87,2024,1590345,2024/02/11 00:00:00+00,Febrero,11,Domingo,1899/12/30 00:00:00+00,21:10:00,21,REGION LIB.B.O'HIGGINS,SANTA CRUZ,COLISION LATERAL,COLISION,RURAL,TRAMO DE VIA RECTA,IMPRUDENCIA DEL CONDUCTOR,CONDUCCION NO ATENTO CONDICIONES TRANSITO MOMENTO, , , ,0,I-756,0,BIDIRECCIONAL,ASFALTO,BUENO,SECO,DESPEJADO,0,0,1,0,06,063,06310,Libertador General Bernardo O'Higgins,Colchagua,Santa Cruz,Ruta,I-756 km 0,-34.650388,-71.279861
-7989528.60832665,-4248426.56393339,88,2024,1590458,2024/02/11 00:00:00+00,Febrero,11,Domingo,1899/12/30 00:00:00+00,21:45:00,21,REGION MAULE,SAN JAVIER,VOLCADURA,VOLCADURA,RURAL,TRAMO DE VIA RECTA,IMPRUDENCIA DEL CONDUCTOR,CARGA ESCURRE A LA CALZADA, , , ,0,L-30-M,"6,8",BIDIRECCIONAL,CONCRETO,BUENO,SECO,DESPEJADO,0,0,0,1,07,074,07406,Maule,Linares,San Javier,Ruta,"L-30-M km 6,8",-35.619762,-71.771157
-7980383.75146489,-4258691.50001005,89,2024,1592231,2024/02/12 00:00:00+00,Febrero,12,Lunes,1899/12/30 00:00:00+00,08:05:00,8,REGION MAULE,VILLA ALEGRE,COLISION LATERAL,COLISION,RURAL,TRAMO DE VIA RECTA,VELOCIDAD IMPRUDENTE,VELOCIDAD NO RAZONABLE NI PRUDENTE, , , ,0,L-16,"18,6",BIDIRECCIONAL,ASFALTO,REGULAR,SECO,DESPEJADO,0,0,0,1,07,074,07407,Maule,Linares,Villa Alegre,Ruta,"L-16 km 18,6",-35.694686,-71.689007
-7927875.70725831,-4076384.39939828,90,2024,1596073,2024/02/12 00:00:00+00,Febrero,12,Lunes,1899/12/30 00:00:00+00,19:00:00,19,REGION LIB.B.O'HIGGINS,PEUMO,COLISION,COLISION,RURAL,CRUCE CON SENAL PARE,IMPRUDENCIA DEL CONDUCTOR,CONDUCCION NO ATENTO CONDICIONES TRANSITO MOMENTO, , , ,0,RUTA 66,33,BIDIRECCIONAL,ASFALTO,BUENO,SECO,DESPEJADO,0,0,0,2,06,061,06112,Libertador General Bernardo O'Higgins,Cachapoal,Peumo,Ruta,RUTA 66 km 33,-34.353623,-71.217319
-7855775.85113321,-4055316.59023685,91,2024,1590633,2024/02/13 00:00:00+00,Febrero,13,Martes,1899/12/30 00:00:00+00,21:15:00,21,REGION LIB.B.O'HIGGINS,MACHALI,COLISION FRONTAL,COLISION,RURAL,TRAMO DE VIA RECTA,IMPRUDENCIA DEL CONDUCTOR,CONDUCCION NO ATENTO CONDICIONES TRANSITO MOMENTO, , , ,0,H-27,19,BIDIRECCIONAL,CONCRETO,BUENO,SECO,DESPEJADO,0,1,0,0,06,061,06108,Libertador General Bernardo O'Higgins,Cachapoal,Machalí,Ruta,H-27 km 19,-34.197234,-70.569635
-7985114.72221106,-4266741.19594354,92,2024,1591860,2024/02/14 00:00:00+00,Febrero,14,Miércoles,1899/12/30 00:00:00+00,08:00:00,8,REGION MAULE,LINARES,VOLCADURA,VOLCADURA,RURAL,TRAMO DE VIA RECTA,DEFICIENCIAS VIALES,ANIMALES SUELTOS VIA PUBLICA, , , ,0,L-220,3,BIDIRECCIONAL,TIERRA,BUENO, ,DESPEJADO,0,1,0,0,07,074,07401,Maule,Linares,Linares,Ruta,L-220 km 3,-35.753391,-71.731506
-8122093.90924627,-4934269.25285353,93,2024,1594547,2024/02/15 00:00:00+00,Febrero,15,Jueves,1899/12/30 00:00:00+00,19:50:00,19,REGION LOS LAGOS,OSORNO,COLISION LATERAL,COLISION,RURAL,TRAMO DE VIA RECTA,ALCOHOL EN CONDUCTOR,CONDUCCION EN ESTADO DE EBRIEDAD, , , ,0,U-145-T,7,BIDIRECCIONAL,ASFALTO,BUENO,SECO,DESPEJADO,0,0,0,1,10,103,10301,Los Lagos,Osorno,Osorno,Ruta,U-145-T km 7,-40.468571,-72.962011
-7903523.21430096,-3502551.8135296,94,2024,1591119,2024/02/16 00:00:00+00,Febrero,16,Viernes,1899/12/30 00:00:00+00,06:35:00,6,REGION COQUIMBO,VICUNA,COLISION POR ALCANCE,COLISION,RURAL,TRAMO DE VIA RECTA,IMPRUDENCIA DEL CONDUCTOR,CONDUCCION NO ATENTO CONDICIONES TRANSITO MOMENTO, , , ,0,41 CH,"29,3",BIDIRECCIONAL,ASFALTO,REGULAR,MOJADO,NUBLADO,1,0,0,0,04,041,04106,Coquimbo,Elqui,Vicuña,Ruta,"41 CH km 29,3",-29.992235,-70.998557
-8040226.3821652,-4495912.36951456,95,2024,1595985,2024/02/16 00:00:00+00,Febrero,16,Viernes,1899/12/30 00:00:00+00,07:35:00,7,REGION BIO BIO,LOS ANGELES,COLISION LATERAL,COLISION,RURAL,CRUCE SIN SENALIZACION,IMPRUDENCIA DEL CONDUCTOR,CONDUCCION NO ATENTO CONDICIONES TRANSITO MOMENTO, , , ,0,Q-35,10,BIDIRECCIONAL,TIERRA,REGULAR, ,DESPEJADO,0,0,1,0,08,083,08301,Biobío,Biobío,Los Angeles,Ruta,Q-35 km 10,-37.406445,-72.226582
-8022562.58684688,-4140238.22651122,96,2024,1594706,2024/02/17 00:00:00+00,Febrero,17,Sábado,1899/12/30 00:00:00+00,12:30:00,12,REGION MAULE,VICHUQUEN,COLISION FRONTAL,COLISION,RURAL,TRAMO DE VIA CURVA HORIZONTAL,IMPRUDENCIA DEL CONDUCTOR,CONDUCCION NO ATENTO CONDICIONES TRANSITO MOMENTO, , , ,0,J-830,8,BIDIRECCIONAL,ASFALTO,BUENO,SECO,DESPEJADO,0,0,0,1,07,073,07309,Maule,Curicó,Vichuquén,Ruta,J-830 km 8,-34.825837,-72.067906
-8010331.1852285,-4384068.59279684,97,2024,1592000,2024/02/18 00:00:00+00,Febrero,18,Domingo,1899/12/30 00:00:00+00,10:10:00,10,REGION NUBLE,CHILLAN,CHOQUE FRENTE/POSTERIOR,CHOQUE,RURAL,TRAMO DE VIA RECTA,IMPRUDENCIA DEL CONDUCTOR,CONDUCCION NO ATENTO CONDICIONES TRANSITO MOMENTO, , , ,0,N-49,13,BIDIRECCIONAL,ASFALTO,BUENO,SECO,DESPEJADO,0,0,0,0,16,161,16101,Ñuble,Diguillín,Chillán,Ruta,N-49 km 13,-36.604117,-71.958029
-7972689.74343432,-4328564.53908241,98,2024,1593728,2024/02/20 00:00:00+00,Febrero,20,Martes,1899/12/30 00:00:00+00,19:15:00,19,REGION MAULE,RETIRO,COLISION POR ALCANCE,COLISION,RURAL,TRAMO DE VIA RECTA,IMPRUDENCIA DEL CONDUCTOR,CONDUCCION CAMBIAR SORPRESIVAMENTE PISTA CIRCULACION, , , ,0,L-75,20,BIDIRECCIONAL,ASFALTO,BUENO,SECO,DESPEJADO,0,1,0,0,07,074,07405,Maule,Linares,Retiro,Ruta,L-75 km 20,-36.202816,-71.619891
-7971314.18690997,-4216537.01700732,99,2024,1592032,2024/02/21 00:00:00+00,Febrero,21,Miércoles,1899/12/30 00:00:00+00,11:08:00,11,REGION MAULE,PELARCO,COLISION,COLISION,RURAL,TRAMO DE VIA RECTA,IMPRUDENCIA DEL CONDUCTOR,NO RESPETAR DERECHO PREFERENTE DE PASO A VEHICULO, , , ,0,RUTA 5 SUR,"248,3",BIDIRECCIONAL CON BANDEJON,ASFALTO,BUENO,SECO,DESPEJADO,0,1,0,0,07,071,07106,Maule,Talca,Pelarco,Ruta,"RUTA 5 SUR km 248,3",-35.386553,-71.607534
-8097380.97027879,-4929658.95446297,100,2024,1597850,2024/02/21 00:00:00+00,Febrero,21,Miércoles,1899/12/30 00:00:00+00,11:50:00,11,REGION DE LOS RIOS,RIO BUENO,COLISION LATERAL,COLISION,RURAL,CRUCE CON SENAL CEDA EL PASO,IMPRUDENCIA DEL CONDUCTOR,CONDUCCION NO ATENTO CONDICIONES TRANSITO MOMENTO, , , ,0,T-933,28,BIDIRECCIONAL,ASFALTO,BUENO,SECO,DESPEJADO,0,0,0,1,14,142,14204,Los Ríos,Ranco,Río Bueno,Ruta,T-933 km 28,-40.437057,-72.740011
-7872628.9701969,-4033297.61008418,101,2024,1617315,2024/02/21 00:00:00+00,Febrero,21,Miércoles,1899/12/30 00:00:00+00,16:40:00,16,REGION LIB.B.O'HIGGINS,GRANEROS,COLISION LATERAL,COLISION,RURAL,TRAMO DE VIA RECTA,IMPRUDENCIA DEL CONDUCTOR,CONDUCCION NO ATENTO CONDICIONES TRANSITO MOMENTO, , , ,0,H-10,11,BIDIRECCIONAL,ASFALTO,BUENO,SECO,DESPEJADO,0,0,0,1,06,061,06106,Libertador General Bernardo O'Higgins,Cachapoal,Graneros,Ruta,H-10 km 11,-34.033474,-70.721029
-7952757.5140194,-4248842.66866975,102,2024,1592288,2024/02/21 00:00:00+00,Febrero,21,Miércoles,1899/12/30 00:00:00+00,17:40:00,17,REGION MAULE,YERBAS BUENAS,COLISION PERPENDICULAR,COLISION,RURAL,TRAMO DE VIA RECTA,IMPRUDENCIA DEL CONDUCTOR,CONDUCCION NO ATENTO CONDICIONES TRANSITO MOMENTO, , , ,0,"L-11, L-35",25,BIDIRECCIONAL,ASFALTO,BUENO,SECO,DESPEJADO,0,1,0,1,07,074,07408,Maule,Linares,Yerbas Buenas,Ruta,"L-11, L-35 km 25",-35.622801,-71.440836
-7930561.61068515,-4082321.11359341,103,2024,1592042,2024/02/21 00:00:00+00,Febrero,21,Miércoles,1899/12/30 00:00:00+00,20:00:00,20,REGION LIB.B.O'HIGGINS,PICHIDEGUA,COLISION POR ALCANCE,COLISION,RURAL,TRAMO DE VIA RECTA,IMPRUDENCIA DEL CONDUCTOR,CONDUCCION NO ATENTO CONDICIONES TRANSITO MOMENTO, , , ,0,H-76,21,BIDIRECCIONAL,ASFALTO,BUENO,SECO,DESPEJADO,0,1,0,0,06,061,06113,Libertador General Bernardo O'Higgins,Cachapoal,Pichidegua,Ruta,H-76 km 21,-34.39764,-71.241447
-7927861.3754416,-4155539.04215851,104,2024,1594276,2024/02/22 00:00:00+00,Febrero,22,Jueves,1899/12/30 00:00:00+00,06:45:00,6,REGION MAULE,CURICO,COLISION POR ALCANCE,COLISION,RURAL,TRAMO DE VIA RECTA,IMPRUDENCIA DEL CONDUCTOR,CONDUCCION SIN MANTENER DISTANCIA RAZONABLE NI PRUDENTE, , , ,0,J-580,7,BIDIRECCIONAL,CONCRETO,BUENO,SECO,DESPEJADO,0,0,0,1,07,073,07301,Maule,Curicó,Curicó,Ruta,J-580 km 7,-34.938591,-71.21719
-7923307.85479878,-4080366.65950742,105,2024,1592765,2024/02/23 00:00:00+00,Febrero,23,Viernes,1899/12/30 00:00:00+00,15:00:00,15,REGION LIB.B.O'HIGGINS,PEUMO,COLISION,COLISION,RURAL,TRAMO DE VIA RECTA,IMPRUDENCIA DEL CONDUCTOR,CONDUCCION NO ATENTO CONDICIONES TRANSITO MOMENTO, , , ,0,RUTA 66,28,BIDIRECCIONAL,ASFALTO,BUENO,SECO,DESPEJADO,1,0,0,1,06,061,06112,Libertador General Bernardo O'Higgins,Cachapoal,Peumo,Ruta,RUTA 66 km 28,-34.383151,-71.176285
-7982054.07905091,-4293984.23811111,106,2024,1594139,2024/02/23 00:00:00+00,Febrero,23,Viernes,1899/12/30 00:00:00+00,18:45:00,18,REGION MAULE,LONGAVI,COLISION POR ALCANCE,COLISION,RURAL,TRAMO DE VIA RECTA,IMPRUDENCIA DEL CONDUCTOR,CONDUCCION CAMBIAR SORPRESIVAMENTE PISTA CIRCULACION, , , ,0,L-510,2,BIDIRECCIONAL,ASFALTO,BUENO,SECO,DESPEJADO,0,0,0,1,07,074,07403,Maule,Linares,Longaví,Ruta,L-510 km 2,-35.95175,-71.704012
-7958579.47710125,-4276947.78397035,107,2024,1594503,2024/02/25 00:00:00+00,Febrero,25,Domingo,1899/12/30 00:00:00+00,17:25:00,17,REGION MAULE,LINARES,COLISION POR ALCANCE,COLISION,RURAL,TRAMO DE VIA RECTA,OTRAS CAUSAS,HECHO DELICTUAL, , , ,0,"L-11, L-35",56,BIDIRECCIONAL,CONCRETO,BUENO,SECO,DESPEJADO,0,1,0,1,07,074,07401,Maule,Linares,Linares,Ruta,"L-11, L-35 km 56",-35.827764,-71.493136
-7931974.30943628,-4191351.30903811,108,2024,1597740,2024/02/25 00:00:00+00,Febrero,25,Domingo,1899/12/30 00:00:00+00,21:50:00,21,REGION MAULE,MOLINA,COLISION LATERAL,COLISION,RURAL,TRAMO DE VIA RECTA,ALCOHOL EN CONDUCTOR,CONDUCCION EN ESTADO DE EBRIEDAD, , , ,0,"K-15, K-25, K-55","13,1",BIDIRECCIONAL,ASFALTO,BUENO,SECO,DESPEJADO,0,0,1,0,07,073,07304,Maule,Curicó,Molina,Ruta,"K-15, K-25, K-55 km 13,1",-35.201891,-71.254138
-7954922.20045453,-4107685.56022326,109,2024,1593033,2024/02/27 00:00:00+00,Febrero,27,Martes,1899/12/30 00:00:00+00,21:45:00,21,REGION LIB.B.O'HIGGINS,SANTA CRUZ,COLISION LATERAL,COLISION,RURAL,TRAMO DE VIA RECTA,IMPRUDENCIA DEL CONDUCTOR,CONDUCCION CAMBIAR SORPRESIVAMENTE PISTA CIRCULACION, , , ,0,I-710,10,BIDIRECCIONAL,ASFALTO,BUENO,SECO,DESPEJADO,1,0,0,1,06,063,06310,Libertador General Bernardo O'Higgins,Colchagua,Santa Cruz,Ruta,I-710 km 10,-34.585438,-71.460282
-7970855.74380288,-4266671.19388741,110,2024,1594797,2024/02/29 00:00:00+00,Febrero,29,Jueves,1899/12/30 00:00:00+00,16:50:00,16,REGION MAULE,YERBAS BUENAS,COLISION POR ALCANCE,COLISION,RURAL,CRUCE CON SENAL PARE,DESOBEDIENCIA A SEÑALIZACION,SENALIZACION DESOBEDECER SENAL PARE, , , ,0,L-215,"7,4",BIDIRECCIONAL,ASFALTO,BUENO,SECO,DESPEJADO,0,0,0,1,07,074,07408,Maule,Linares,Yerbas Buenas,Ruta,"L-215 km 7,4",-35.752881,-71.603415
-8140442.62006238,-4859807.38831445,111,2024,1593848,2024/02/29 00:00:00+00,Febrero,29,Jueves,1899/12/30 00:00:00+00,21:10:00,21,REGION DE LOS RIOS,LA UNION,COLISION POR ALCANCE,COLISION,RURAL,TRAMO DE VIA RECTA,IMPRUDENCIA DEL CONDUCTOR,CONDUCCION NO ATENTO CONDICIONES TRANSITO MOMENTO, , , ,0,T-60,4,BIDIRECCIONAL,ASFALTO,BUENO,SECO,DESPEJADO,0,1,0,0,14,142,14201,Los Ríos,Ranco,La Unión,Ruta,T-60 km 4,-39.95777,-73.12684
-7983877.41768151,-4226468.75833282,112,2024,1594122,2024/03/01 00:00:00+00,Marzo,1,Viernes,1899/12/30 00:00:00+00,19:10:00,19,REGION MAULE,MAULE,COLISION POR ALCANCE,COLISION,RURAL,TRAMO DE VIA CURVA HORIZONTAL,IMPRUDENCIA DEL CONDUCTOR,CONDUCCION SIN MANTENER DISTANCIA RAZONABLE NI PRUDENTE, , , ,0,K-610,3,BIDIRECCIONAL,ASFALTO,BUENO,SECO,DESPEJADO,0,1,0,0,07,071,07105,Maule,Talca,Maule,Ruta,K-610 km 3,-35.459257,-71.720391
-7511830.11640952,-2735192.7087081,113,2024,1597462,2024/03/03 00:00:00+00,Marzo,3,Domingo,1899/12/30 00:00:00+00,21:00:00,21,REGION ANTOFAGASTA,SAN PEDRO ATACAMA,COLISION POR ALCANCE,COLISION,RURAL,TRAMO DE VIA RECTA,IMPRUDENCIA DEL CONDUCTOR,CONDUCCION SIN MANTENER DISTANCIA RAZONABLE NI PRUDENTE, , , ,0,23 CH,285,BIDIRECCIONAL,ASFALTO,BUENO,SECO,DESPEJADO,0,0,0,1,02,022,02203,Antofagasta,El Loa,San Pedro de Atacama,Ruta,23 CH km 285,-23.850428,-67.479918
-7967689.99066445,-4233418.31748679,114,2024,1597951,2024/03/04 00:00:00+00,Marzo,4,Lunes,1899/12/30 00:00:00+00,20:10:00,20,REGION MAULE,SAGRADA FAMILIA,COLISION LATERAL,COLISION,RURAL,TRAMO DE VIA RECTA,IMPRUDENCIA DEL CONDUCTOR,CONDUCCION NO ATENTO CONDICIONES TRANSITO MOMENTO, , , ,0,"K-156, K-157","4,1",BIDIRECCIONAL,ASFALTO,BUENO,SECO,DESPEJADO,0,1,0,0,07,073,07307,Maule,Curicó,Sagrada Familia,Ruta,"K-156, K-157 km 4,1",-35.510091,-71.574977
-7925669.90593774,-4116806.29850175,115,2024,1601743,2024/03/05 00:00:00+00,Marzo,5,Martes,1899/12/30 00:00:00+00,08:00:00,8,REGION LIB.B.O'HIGGINS,NANCAGUA,COLISION LATERAL,COLISION,RURAL,TRAMO DE VIA RECTA,IMPRUDENCIA DEL CONDUCTOR,CONDUCCION NO ATENTO CONDICIONES TRANSITO MOMENTO, , , ,0,I-50,"22,5",BIDIRECCIONAL,ASFALTO,BUENO,SECO,DESPEJADO,0,0,0,1,06,063,06305,Libertador General Bernardo O'Higgins,Colchagua,Nancagua,Ruta,"I-50 km 22,5",-34.652864,-71.197504
-8012540.09857449,-4359017.37816541,116,2024,1596108,2024/03/08 00:00:00+00,Marzo,8,Viernes,1899/12/30 00:00:00+00,07:25:00,7,REGION NUBLE,SAN CARLOS,COLISION LATERAL,COLISION,RURAL,TRAMO DE VIA RECTA,IMPRUDENCIA DEL CONDUCTOR,CONDUCCION SIN MANTENER DISTANCIA RAZONABLE NI PRUDENTE, , , ,0,N-70-M,1,BIDIRECCIONAL,ASFALTO,BUENO,SECO,DESPEJADO,0,1,0,1,16,163,16301,Ñuble,Punilla,San Carlos,Ruta,N-70-M km 1,-36.423251,-71.977872
-8002321.87347883,-4354811.66381867,117,2024,1597049,2024/03/09 00:00:00+00,Marzo,9,Sábado,1899/12/30 00:00:00+00,07:10:00,7,REGION NUBLE,SAN CARLOS,COLISION POR ALCANCE,COLISION,RURAL,TRAMO DE VIA RECTA,IMPRUDENCIA DEL CONDUCTOR,CONDUCCION NO ATENTO CONDICIONES TRANSITO MOMENTO, , , ,0,N-291,7,BIDIRECCIONAL,ASFALTO,BUENO,SECO,DESPEJADO,0,1,0,0,16,163,16301,Ñuble,Punilla,San Carlos,Ruta,N-291 km 7,-36.392844,-71.88608
-7947984.48700339,-4081090.41964819,118,2024,1595915,2024/03/10 00:00:00+00,Marzo,10,Domingo,1899/12/30 00:00:00+00,16:00:00,16,REGION LIB.B.O'HIGGINS,PICHIDEGUA,COLISION LATERAL,COLISION,RURAL,TRAMO DE VIA RECTA,IMPRUDENCIA DEL CONDUCTOR,NO RESPETAR DERECHO PREFERENTE DE PASO A VEHICULO, , , ,0,H-82,15,BIDIRECCIONAL,ASFALTO,BUENO,SECO,DESPEJADO,1,0,0,0,06,061,06113,Libertador General Bernardo O'Higgins,Cachapoal,Pichidegua,Ruta,H-82 km 15,-34.388517,-71.397959
-7919584.32318451,-3724243.11919194,119,2024,1596507,2024/03/11 00:00:00+00,Marzo,11,Lunes,1899/12/30 00:00:00+00,16:45:00,16,REGION COQUIMBO,SALAMANCA,COLISION,COLISION,RURAL,TRAMO DE VIA RECTA,IMPRUDENCIA DEL CONDUCTOR,CONDUCCION NO ATENTO CONDICIONES TRANSITO MOMENTO, , , ,0,"D-81, D-835","10,2",BIDIRECCIONAL,ASFALTO,BUENO,SECO,DESPEJADO,0,1,0,1,04,042,04204,Coquimbo,Choapa,Salamanca,Ruta,"D-81, D-835 km 10,2",-31.701896,-71.142836
-8023684.5450923,-4374257.53286922,120,2024,1599441,2024/03/12 00:00:00+00,Marzo,12,Martes,1899/12/30 00:00:00+00,01:15:00,1,REGION NUBLE,SAN NICOLAS,COLISION FRONTAL,COLISION,RURAL,TRAMO DE VIA RECTA,IMPRUDENCIA DEL CONDUCTOR,CONDUCCION NO ATENTO CONDICIONES TRANSITO MOMENTO, , , ,0,RUTA 5 SUR,394,BIDIRECCIONAL,ASFALTO,BUENO,SECO,DESPEJADO,0,2,0,0,16,163,16305,Ñuble,Punilla,San Nicolás,Ruta,RUTA 5 SUR km 394,-36.533333,-72.077985
-8096104.46731789,-4699843.70683195,121,2024,1596505,2024/03/12 00:00:00+00,Marzo,12,Martes,1899/12/30 00:00:00+00,07:15:00,7,REGION ARAUCANIA,PADRE LAS CASAS,COLISION LATERAL,COLISION,RURAL,TRAMO DE VIA RECTA,IMPRUDENCIA DEL CONDUCTOR,CONDUCCION SIN MANTENER DISTANCIA RAZONABLE NI PRUDENTE, , , ,0,S-578,11,BIDIRECCIONAL,ASFALTO,BUENO,SECO,NUBLADO,0,0,0,1,09,091,09112,La Araucanía,Cautín,Padre Las Casas,Ruta,S-578 km 11,-38.847451,-72.728544
-7971468.59382306,-4124604.87602002,122,2024,1596336,2024/03/12 00:00:00+00,Marzo,12,Martes,1899/12/30 00:00:00+00,21:00:00,21,REGION LIB.B.O'HIGGINS,LOLOL,COLISION POR ALCANCE,COLISION,RURAL,TRAMO DE VIA RECTA,IMPRUDENCIA DEL CONDUCTOR,CONDUCCION NO ATENTO CONDICIONES TRANSITO MOMENTO, , , ,0,I-72,28,BIDIRECCIONAL,CONCRETO,REGULAR,SECO,DESPEJADO,1,0,0,0,06,063,06304,Libertador General Bernardo O'Higgins,Colchagua,Lolol,Ruta,I-72 km 28,-34.710473,-71.608921
-7915727.85956729,-3588321.21418185,123,2024,1601449,2024/03/14 00:00:00+00,Marzo,14,Jueves,1899/12/30 00:00:00+00,16:15:00,16,REGION COQUIMBO,OVALLE,COLISION,COLISION,RURAL,OTROS NO CONSIDERADOS,IMPRUDENCIA DEL CONDUCTOR,CONDUCCION NO ATENTO CONDICIONES TRANSITO MOMENTO, , , ,0,D-507,1,BIDIRECCIONAL,RIPIO,BUENO, ,DESPEJADO,0,0,1,0,04,043,04301,Coquimbo,Limarí,Ovalle,Ruta,D-507 km 1,-30.65729,-71.108193
-7981295.31425858,-4248127.40503108,124,2024,1597318,2024/03/15 00:00:00+00,Marzo,15,Viernes,1899/12/30 00:00:00+00,21:00:00,21,REGION MAULE,SAN JAVIER,COLISION FRONTAL,COLISION,RURAL,TRAMO DE VIA RECTA,ALCOHOL EN CONDUCTOR,CONDUCCION EN ESTADO DE EBRIEDAD, , , ,0,L-131,"1,7",BIDIRECCIONAL,ASFALTO,BUENO,SECO,DESPEJADO,0,1,0,0,07,074,07406,Maule,Linares,San Javier,Ruta,"L-131 km 1,7",-35.617577,-71.697196
-7562537.57644639,-2590544.31976197,125,2024,1597985,2024/03/16 00:00:00+00,Marzo,16,Sábado,1899/12/30 00:00:00+00,09:00:00,9,REGION ANTOFAGASTA,SAN PEDRO ATACAMA,COLISION FRONTAL,COLISION,RURAL,TRAMO DE VIA RECTA,ALCOHOL EN CONDUCTOR,CONDUCCION EN ESTADO DE EBRIEDAD, , , ,0,B-245,45,BIDIRECCIONAL,ADOQUIN,REGULAR,SECO,DESPEJADO,0,0,1,0,02,022,02203,Antofagasta,El Loa,San Pedro de Atacama,Ruta,B-245 km 45,-22.656613,-67.935431
-8141425.42249891,-4420661.37111697,126,2024,1598869,2024/03/16 00:00:00+00,Marzo,16,Sábado,1899/12/30 00:00:00+00,20:40:00,20,REGION BIO BIO,SAN PEDRO DE LA PAZ,COLISION PERPENDICULAR,COLISION,RURAL,CRUCE CON SEMAFORO FUNCIONANDO,DESOBEDIENCIA A SEÑALIZACION,SENALIZACION DESOBEDECER LUZ ROJA DE SEMAFORO, , , ,0,RUTA 160,8,BIDIRECCIONAL CON BANDEJON,CONCRETO,BUENO,SECO,DESPEJADO,1,0,0,0,08,081,08108,Biobío,Concepción,San Pedro de la Paz,Ruta,RUTA 160 km 8,-36.867553,-73.135669
-8136499.61719622,-4910169.11595434,127,2024,1597620,2024/03/16 00:00:00+00,Marzo,16,Sábado,1899/12/30 00:00:00+00,21:30:00,21,REGION DE LOS RIOS,LA UNION,COLISION,COLISION,RURAL,CRUCE CON SEMAFORO FUNCIONANDO,ALCOHOL EN CONDUCTOR,CONDUCCION EN ESTADO DE EBRIEDAD, , , ,0,T-80,"1,1",BIDIRECCIONAL,ASFALTO,BUENO,SECO,DESPEJADO,0,0,1,0,14,142,14201,Los Ríos,Ranco,La Unión,Ruta,"T-80 km 1,1",-40.303668,-73.09142
-7989468.54391391,-4327095.23862498,128,2024,1601479,2024/03/19 00:00:00+00,Marzo,19,Martes,1899/12/30 00:00:00+00,16:30:00,16,REGION MAULE,PARRAL,COLISION LATERAL,COLISION,RURAL,TRAMO DE VIA RECTA,IMPRUDENCIA DEL CONDUCTOR,CONDUCCION NO ATENTO CONDICIONES TRANSITO MOMENTO, , , ,0,L-85,6,BIDIRECCIONAL,ASFALTO,BUENO,HUMEDO,NUBLADO,0,0,0,0,07,074,07404,Maule,Linares,Parral,Ruta,L-85 km 6,-36.192165,-71.770617
-7881380.0507128,-4063257.57401123,129,2024,1598893,2024/03/22 00:00:00+00,Marzo,22,Viernes,1899/12/30 00:00:00+00,07:35:00,7,REGION LIB.B.O'HIGGINS,REQUINOA,COLISION LATERAL,COLISION,RURAL,TRAMO DE VIA RECTA,IMPRUDENCIA DEL CONDUCTOR,ADELANTAMIENTO SOBREPASANDO LINEA CONTINUA, , , ,0,"H-406, H-409",3,BIDIRECCIONAL,ASFALTO,BUENO,SECO,DESPEJADO,1,0,0,0,06,061,06116,Libertador General Bernardo O'Higgins,Cachapoal,Requínoa,Ruta,"H-406, H-409 km 3",-34.256215,-70.799642
-7975687.94031198,-4226086.95086378,130,2024,1601093,2024/03/25 00:00:00+00,Marzo,25,Lunes,1899/12/30 00:00:00+00,10:40:00,10,REGION MAULE,MAULE,COLISION LATERAL,COLISION,RURAL,TRAMO DE VIA RECTA,IMPRUDENCIA DEL CONDUCTOR,CONDUCCION NO ATENTO CONDICIONES TRANSITO MOMENTO, , , ,0,RUTA 5 SUR,257,BIDIRECCIONAL,CONCRETO,BUENO,SECO,DESPEJADO,0,1,0,0,07,071,07105,Maule,Talca,Maule,Ruta,RUTA 5 SUR km 257,-35.456463,-71.646824
-8137220.17086089,-4951348.86175961,131,2024,1600176,2024/03/28 00:00:00+00,Marzo,28,Jueves,1899/12/30 00:00:00+00,12:35:00,12,REGION LOS LAGOS,OSORNO,COLISION POR ALCANCE,COLISION,RURAL,TRAMO DE VIA RECTA,IMPRUDENCIA DEL CONDUCTOR,CONDUCCION SIN MANTENER DISTANCIA RAZONABLE NI PRUDENTE, , , ,0,RUTA 5 SUR,920,BIDIRECCIONAL CON BANDEJON,ASFALTO,BUENO,SECO,DESPEJADO,0,1,0,0,10,103,10301,Los Lagos,Osorno,Osorno,Ruta,RUTA 5 SUR km 920,-40.585193,-73.097892
-8069676.14072734,-5153757.46187265,132,2024,1603694,2024/03/28 00:00:00+00,Marzo,28,Jueves,1899/12/30 00:00:00+00,19:30:00,19,REGION LOS LAGOS,HUALAIHUE,ATROPELLO,ATROPELLO,RURAL,TRAMO DE VIA RECTA,ALCOHOL EN CONDUCTOR,CONDUCCION EN ESTADO DE EBRIEDAD, , , ,0,RUTA 7,"96,8",BIDIRECCIONAL,ASFALTO,BUENO,HUMEDO,NUBLADO,0,0,0,2,10,104,10403,Los Lagos,Palena,Hualaihué,Ruta,"RUTA 7 km 96,8",-41.951769,-72.491134
-8141188.19136885,-4419431.35226451,133,2024,1600564,2024/03/30 00:00:00+00,Marzo,30,Sábado,1899/12/30 00:00:00+00,16:05:00,16,REGION BIO BIO,SAN PEDRO DE LA PAZ,COLISION PERPENDICULAR,COLISION,RURAL,CRUCE CON SEMAFORO FUNCIONANDO,IMPRUDENCIA DEL CONDUCTOR,NO RESPETAR DERECHO PREFERENTE DE PASO A VEHICULO, , , ,0,RUTA 160,7,BIDIRECCIONAL CON BANDEJON,CONCRETO,BUENO,SECO,DESPEJADO,0,1,0,0,08,081,08108,Biobío,Concepción,San Pedro de la Paz,Ruta,RUTA 160 km 7,-36.858712,-73.133538
-8038094.98996488,-4716479.88867204,134,2024,1604705,2024/04/01 00:00:00+00,Abril,1,Lunes,1899/12/30 00:00:00+00,13:00:00,13,REGION ARAUCANIA,CUNCO,COLISION LATERAL,COLISION,RURAL,TRAMO DE VIA RECTA,IMPRUDENCIA DEL CONDUCTOR,CONDUCCION NO ATENTO CONDICIONES TRANSITO MOMENTO, , , ,0,S-61,30,BIDIRECCIONAL,ASFALTO,BUENO,SECO,DESPEJADO,0,0,0,1,09,091,09103,La Araucanía,Cautín,Cunco,Ruta,S-61 km 30,-38.963746,-72.207436
-8121054.74929152,-4939709.62203031,135,2024,1601257,2024/04/02 00:00:00+00,Abril,2,Martes,1899/12/30 00:00:00+00,07:40:00,7,REGION LOS LAGOS,SAN PABLO,COLISION,COLISION,RURAL,TRAMO DE VIA RECTA,IMPRUDENCIA DEL CONDUCTOR,CONDUCCION NO ATENTO CONDICIONES TRANSITO MOMENTO, , , ,0,U-151,"4,5",UNIDIRECCIONAL,ASFALTO,REGULAR,MOJADO,LLUVIA,0,1,0,0,10,103,10307,Los Lagos,Osorno,San Pablo,Ruta,"U-151 km 4,5",-40.505741,-72.952676
-8048947.58461883,-4499890.20271938,136,2024,1602610,2024/04/04 00:00:00+00,Abril,4,Jueves,1899/12/30 00:00:00+00,17:30:00,17,REGION BIO BIO,LOS ANGELES,CHOQUE FRONTAL,CHOQUE,RURAL,OTROS NO CONSIDERADOS,IMPRUDENCIA DEL CONDUCTOR,CONDUCCION NO ATENTO CONDICIONES TRANSITO MOMENTO, , , ,0,Q-35,2,BIDIRECCIONAL,CONCRETO,BUENO,SECO,DESPEJADO,0,0,0,0,08,083,08301,Biobío,Biobío,Los Angeles,Ruta,Q-35 km 2,-37.434824,-72.304926
-8125704.49236485,-4589947.30596861,137,2024,1602044,2024/04/05 00:00:00+00,Abril,5,Viernes,1899/12/30 00:00:00+00,15:05:00,15,REGION ARAUCANIA,PUREN,COLISION LATERAL,COLISION,RURAL,TRAMO DE VIA RECTA,IMPRUDENCIA DEL CONDUCTOR,CONDUCCION NO ATENTO CONDICIONES TRANSITO MOMENTO, , , ,0,"R-42, R-90-P",10,BIDIRECCIONAL,CONCRETO,BUENO,SECO,DESPEJADO,0,0,0,1,09,092,09208,La Araucanía,Malleco,Purén,Ruta,"R-42, R-90-P km 10",-38.074442,-72.994445
-7927447.36333853,-4117165.49995832,138,2024,1602313,2024/04/07 00:00:00+00,Abril,7,Domingo,1899/12/30 00:00:00+00,05:15:00,5,REGION LIB.B.O'HIGGINS,NANCAGUA,COLISION LATERAL,COLISION,RURAL,TRAMO DE VIA RECTA,ALCOHOL EN CONDUCTOR,CONDUCCION EN ESTADO DE EBRIEDAD, , , ,0,I-50,24,BIDIRECCIONAL,ASFALTO,BUENO,SECO,DESPEJADO,1,0,0,0,06,063,06305,Libertador General Bernardo O'Higgins,Colchagua,Nancagua,Ruta,I-50 km 24,-34.655519,-71.213471
-7934723.43852677,-4056949.55713126,139,2024,1608568,2024/04/09 00:00:00+00,Abril,9,Martes,1899/12/30 00:00:00+00,07:30:00,7,REGION LIB.B.O'HIGGINS,LAS CABRAS,COLISION,COLISION,RURAL,TRAMO DE VIA RECTA,IMPRUDENCIA DEL CONDUCTOR,CONDUCCION NO ATENTO CONDICIONES TRANSITO MOMENTO, , , ,0,H-776,"2,5",BIDIRECCIONAL,ASFALTO,BUENO,SECO,DESPEJADO,0,0,1,0,06,061,06107,Libertador General Bernardo O'Higgins,Cachapoal,Las Cabras,Ruta,"H-776 km 2,5",-34.209366,-71.278833
-7986196.24296126,-4770532.75686868,140,2024,1603352,2024/04/10 00:00:00+00,Abril,10,Miércoles,1899/12/30 00:00:00+00,16:35:00,16,REGION ARAUCANIA,CURARREHUE,COLISION POR ALCANCE,COLISION,RURAL,OTROS NO CONSIDERADOS,IMPRUDENCIA DEL CONDUCTOR,CONDUCCION NO ATENTO CONDICIONES TRANSITO MOMENTO, , , ,0,199 CH,101,BIDIRECCIONAL,ASFALTO,BUENO,SECO,DESPEJADO,0,0,0,1,09,091,09104,La Araucanía,Cautín,Curarrehue,Ruta,199 CH km 101,-39.340288,-71.741221
-8043522.65642697,-4485641.82448186,141,2024,1603877,2024/04/11 00:00:00+00,Abril,11,Jueves,1899/12/30 00:00:00+00,19:28:00,19,REGION BIO BIO,LOS ANGELES,COLISION POR ALCANCE,COLISION,RURAL,TRAMO DE VIA RECTA,IMPRUDENCIA DEL CONDUCTOR,CONDUCCION NO ATENTO CONDICIONES TRANSITO MOMENTO, , , ,0,Q-15,15,BIDIRECCIONAL,ASFALTO,BUENO,SECO,NUBLADO,0,0,0,1,08,083,08301,Biobío,Biobío,Los Angeles,Ruta,Q-15 km 15,-37.333121,-72.256193
-8091312.29749055,-4910911.58515713,142,2024,1612705,2024/04/16 00:00:00+00,Abril,16,Martes,1899/12/30 00:00:00+00,07:30:00,7,REGION DE LOS RIOS,RIO BUENO,COLISION,COLISION,RURAL,TRAMO DE VIA RECTA,IMPRUDENCIA DEL CONDUCTOR,CONDUCCION NO ATENTO CONDICIONES TRANSITO MOMENTO, , , ,0,T-85,27,BIDIRECCIONAL,ASFALTO,BUENO,SECO,DESPEJADO,0,0,0,1,14,142,14204,Los Ríos,Ranco,Río Bueno,Ruta,T-85 km 27,-40.308754,-72.685495
-7871925.09626624,-4022645.71717732,143,2024,1619100,2024/04/18 00:00:00+00,Abril,18,Jueves,1899/12/30 00:00:00+00,08:10:00,8,REGION LIB.B.O'HIGGINS,MOSTAZAL,COLISION,COLISION,RURAL,TRAMO DE VIA RECTA,IMPRUDENCIA DEL CONDUCTOR,CONDUCCION NO ATENTO CONDICIONES TRANSITO MOMENTO, , , ,0,H-10,2,BIDIRECCIONAL,ASFALTO,BUENO,SECO,DESPEJADO,0,0,0,0,06,061,06110,Libertador General Bernardo O'Higgins,Cachapoal,Mostazal,Ruta,H-10 km 2,-33.954139,-70.714706
-8062731.7621998,-4481084.50755063,144,2024,1605230,2024/04/20 00:00:00+00,Abril,20,Sábado,1899/12/30 00:00:00+00,12:00:00,12,REGION BIO BIO,LOS ANGELES,COLISION,COLISION,RURAL,TRAMO DE VIA RECTA,IMPRUDENCIA DEL CONDUCTOR,CONDUCIR VEHICULO EN RETROCESO, , , ,0,Q-120,"1,5",BIDIRECCIONAL,ASFALTO,BUENO,SECO,DESPEJADO,1,0,0,0,08,083,08301,Biobío,Biobío,Los Angeles,Ruta,"Q-120 km 1,5",-37.300562,-72.428752
-7920056.71821942,-4179708.62347667,145,2024,1608091,2024/04/20 00:00:00+00,Abril,20,Sábado,1899/12/30 00:00:00+00,18:55:00,18,REGION MAULE,CURICO,COLISION POR ALCANCE,COLISION,RURAL,TRAMO DE VIA RECTA,IMPRUDENCIA DEL CONDUCTOR,CONDUCCION SIN MANTENER DISTANCIA RAZONABLE NI PRUDENTE, , , ,0,J-65,17,BIDIRECCIONAL,ASFALTO,BUENO,SECO,NUBLADO,0,1,0,0,07,073,07301,Maule,Curicó,Curicó,Ruta,J-65 km 17,-35.116385,-71.14708
-7910950.57780902,-4087630.34138314,146,2024,1605328,2024/04/20 00:00:00+00,Abril,20,Sábado,1899/12/30 00:00:00+00,23:50:00,23,REGION LIB.B.O'HIGGINS,SAN VICENTE,COLISION LATERAL,COLISION,RURAL,CRUCE CON SEMAFORO FUNCIONANDO,DESOBEDIENCIA A SEÑALIZACION,SENALIZACION DESOBEDECER LUZ ROJA DE SEMAFORO, , , ,0,RUTA 66,16,BIDIRECCIONAL,ASFALTO,BUENO,SECO,NUBLADO,1,0,0,0,06,061,06117,Libertador General Bernardo O'Higgins,Cachapoal,San Vicente,Ruta,RUTA 66 km 16,-34.436984,-71.065278
-8085784.33112085,-4279368.86082723,147,2024,1607145,2024/04/22 00:00:00+00,Abril,22,Lunes,1899/12/30 00:00:00+00,14:47:00,14,REGION MAULE,PELLUHUE,COLISION FRONTAL,COLISION,RURAL,TRAMO DE VIA RECTA,IMPRUDENCIA DEL CONDUCTOR,CONDUCCION NO ATENTO CONDICIONES TRANSITO MOMENTO, , , ,0,M-80-N,"11,1",BIDIRECCIONAL,ASFALTO,REGULAR,SECO,DESPEJADO,0,1,0,0,07,072,07203,Maule,Cauquenes,Pelluhue,Ruta,"M-80-N km 11,1",-35.845396,-72.635836
-8089174.86425976,-4941642.5422765,148,2024,1607455,2024/04/25 00:00:00+00,Abril,25,Jueves,1899/12/30 00:00:00+00,19:45:00,19,REGION DE LOS RIOS,RIO BUENO,COLISION,COLISION,RURAL,TRAMO DE VIA RECTA,ALCOHOL EN CONDUCTOR,CONDUCCION EN ESTADO DE EBRIEDAD, , , ,0,T-933,3,BIDIRECCIONAL,CONCRETO,BUENO,MOJADO,NUBLADO,0,0,0,1,14,142,14204,Los Ríos,Ranco,Río Bueno,Ruta,T-933 km 3,-40.518942,-72.666294
-8077727.95933475,-4525769.95464643,149,2024,1609185,2024/05/05 00:00:00+00,Mayo,5,Domingo,1899/12/30 00:00:00+00,19:30:00,19,REGION BIO BIO,NEGRETE,COLISION,COLISION,RURAL,TRAMO DE VIA RECTA,IMPRUDENCIA DEL CONDUCTOR,CONDUCCION NO ATENTO CONDICIONES TRANSITO MOMENTO, , , ,0,Q-496,"2,5",BIDIRECCIONAL,ASFALTO,BUENO,SECO,DESPEJADO,0,0,0,0,08,083,08307,Biobío,Biobío,Negrete,Ruta,"Q-496 km 2,5",-37.619197,-72.563465
-7931065.15968181,-3513990.86033659,150,2024,1609003,2024/05/06 00:00:00+00,Mayo,6,Lunes,1899/12/30 00:00:00+00,05:40:00,5,REGION COQUIMBO,COQUIMBO,COLISION PERPENDICULAR,COLISION,RURAL,TRAMO DE VIA RECTA,IMPRUDENCIA DEL CONDUCTOR,CONDUCCION NO ATENTO CONDICIONES TRANSITO MOMENTO, , , ,0,RUTA 43,"64,1",BIDIRECCIONAL,ASFALTO,BUENO,SECO,DESPEJADO,1,0,0,0,04,041,04102,Coquimbo,Elqui,Coquimbo,Ruta,"RUTA 43 km 64,1",-30.081194,-71.245971
-8166505.29065687,-4680522.69840541,151,2024,1609346,2024/05/07 00:00:00+00,Mayo,7,Martes,1899/12/30 00:00:00+00,19:20:00,19,REGION ARAUCANIA,CARAHUE,COLISION FRONTAL,COLISION,RURAL,TRAMO DE VIA RECTA,ALCOHOL EN CONDUCTOR,CONDUCCION EN ESTADO DE EBRIEDAD, , , ,0,S-36,20,BIDIRECCIONAL,ASFALTO,REGULAR,MOJADO,LLUVIA,0,0,0,1,09,091,09102,La Araucanía,Cautín,Carahue,Ruta,S-36 km 20,-38.712148,-73.360965
-8075328.55689988,-4684918.68227221,152,2024,1610009,2024/05/08 00:00:00+00,Mayo,8,Miércoles,1899/12/30 00:00:00+00,14:00:00,14,REGION ARAUCANIA,PADRE LAS CASAS,COLISION,COLISION,RURAL,CRUCE SIN SENALIZACION,IMPRUDENCIA DEL CONDUCTOR,CONDUCCION NO ATENTO CONDICIONES TRANSITO MOMENTO, , , ,0,S-269,3,BIDIRECCIONAL,ASFALTO,REGULAR,SECO,NUBLADO,0,0,0,1,09,091,09112,La Araucanía,Cautín,Padre Las Casas,Ruta,S-269 km 3,-38.742955,-72.541911
-7936590.34751702,-4173683.58780165,153,2024,1609979,2024/05/10 00:00:00+00,Mayo,10,Viernes,1899/12/30 00:00:00+00,19:20:00,19,REGION MAULE,MOLINA,COLISION POR ALCANCE,COLISION,RURAL,TRAMO DE VIA RECTA,IMPRUDENCIA DEL CONDUCTOR,NO RESPETAR DERECHO PREFERENTE DE PASO A VEHICULO, , , ,0,"K-156, K-157","3,4",BIDIRECCIONAL,ASFALTO,BUENO,SECO,DESPEJADO,1,0,0,0,07,073,07304,Maule,Curicó,Molina,Ruta,"K-156, K-157 km 3,4",-35.0721,-71.295604
-7675212.6006159,-2569576.78496498,154,2024,1611777,2024/05/12 00:00:00+00,Mayo,12,Domingo,1899/12/30 00:00:00+00,10:20:00,10,REGION ANTOFAGASTA,CALAMA,COLISION,COLISION,RURAL,TRAMO DE VIA RECTA,IMPRUDENCIA DEL CONDUCTOR,CONDUCCION SIN MANTENER DISTANCIA RAZONABLE NI PRUDENTE, , , ,0,B-181,2,BIDIRECCIONAL,ASFALTO,BUENO,SECO,DESPEJADO,0,0,0,1,02,022,02201,Antofagasta,El Loa,Calama,Ruta,B-181 km 2,-22.482684,-68.947608
-7916977.30747254,-4114513.88669906,155,2024,1615016,2024/05/14 00:00:00+00,Mayo,14,Martes,1899/12/30 00:00:00+00,17:50:00,17,REGION LIB.B.O'HIGGINS,SAN FERNANDO,COLISION LATERAL,COLISION,RURAL,TRAMO DE VIA RECTA,IMPRUDENCIA DEL CONDUCTOR,CONDUCCION NO ATENTO CONDICIONES TRANSITO MOMENTO, , , ,0,I-50,15,BIDIRECCIONAL,ASFALTO,BUENO,SECO,DESPEJADO,0,1,0,0,06,063,06301,Libertador General Bernardo O'Higgins,Colchagua,San Fernando,Ruta,I-50 km 15,-34.635923,-71.119417
-7956096.69854963,-3591623.73818751,156,2024,1612794,2024/05/15 00:00:00+00,Mayo,15,Miércoles,1899/12/30 00:00:00+00,20:56:00,20,REGION COQUIMBO,OVALLE,COLISION,COLISION,RURAL,TRAMO DE VIA RECTA,IMPRUDENCIA DEL CONDUCTOR,CONDUCCION NO ATENTO CONDICIONES TRANSITO MOMENTO, , , ,0,RUTA 45,4,BIDIRECCIONAL,ASFALTO,BUENO,SECO,DESPEJADO,0,0,1,0,04,043,04301,Coquimbo,Limarí,Ovalle,Ruta,RUTA 45 km 4,-30.682807,-71.470833
-7769900.68892263,-2297873.0156425,157,2024,1614049,2024/05/19 00:00:00+00,Mayo,19,Domingo,1899/12/30 00:00:00+00,09:25:00,9,REGION TARAPACA,ALTO HOSPICIO,OTRO TIPO,OTRO TIPO,RURAL,TRAMO DE VIA RECTA,DESOBEDIENCIA A SEÑALIZACION,SENALIZACION DESOBEDECER LUZ ROJA DE SEMAFORO, , , ,0,RUTA 16,1,BIDIRECCIONAL CON BANDEJON,ASFALTO,BUENO,SECO,DESPEJADO,0,1,0,0,01,011,01107,Tarapacá,Iquique,Alto Hospicio,Ruta,RUTA 16 km 1,-20.209562,-69.798205
-7864856.38396416,-3169779.43908493,158,2024,1612732,2024/05/21 00:00:00+00,Mayo,21,Martes,1899/12/30 00:00:00+00,13:30:00,13,REGION ATACAMA,COPIAPO,COLISION,COLISION,RURAL,TRAMO DE VIA CURVA HORIZONTAL,DEFICIENCIAS VIALES,ANIMALES SUELTOS VIA PUBLICA, , , ,0,C-370,2,BIDIRECCIONAL,ASFALTO,BUENO,SECO,DESPEJADO,0,0,0,1,03,031,03101,Atacama,Copiapó,Copiapó,Ruta,C-370 km 2,-27.370036,-70.651207
-8136929.06246652,-4403768.13534087,159,2024,1615338,2024/05/23 00:00:00+00,Mayo,23,Jueves,1899/12/30 00:00:00+00,10:00:00,10,REGION BIO BIO,TALCAHUANO,COLISION LATERAL,COLISION,RURAL,TRAMO DE VIA RECTA,IMPRUDENCIA DEL CONDUCTOR,CONDUCCION CAMBIAR SORPRESIVAMENTE PISTA CIRCULACION, , , ,0,RUTA 154,"9,6",BIDIRECCIONAL CON BANDEJON,CONCRETO,BUENO,SECO,DESPEJADO,0,0,0,0,08,081,08110,Biobío,Concepción,Talcahuano,Ruta,"RUTA 154 km 9,6",-36.746049,-73.095277
-8085313.78264252,-5045851.07771186,160,2024,1613613,2024/05/24 00:00:00+00,Mayo,24,Viernes,1899/12/30 00:00:00+00,15:55:00,15,REGION LOS LAGOS,PUERTO VARAS,COLISION PERPENDICULAR,COLISION,RURAL,TRAMO DE VIA RECTA,IMPRUDENCIA DEL CONDUCTOR,NO RESPETAR DERECHO PREFERENTE DE PASO A VEHICULO, , , ,0,"V-55, 225 CH",39,BIDIRECCIONAL,ASFALTO,BUENO,HUMEDO,LLUVIA,0,0,0,0,10,101,10109,Los Lagos,Llanquihue,Puerto Varas,Ruta,"V-55, 225 CH km 39",-41.226791,-72.631609
-7888770.89290081,-4085352.22003402,161,2024,1614721,2024/05/24 00:00:00+00,Mayo,24,Viernes,1899/12/30 00:00:00+00,19:30:00,19,REGION LIB.B.O'HIGGINS,MALLOA,COLISION,COLISION,RURAL,TRAMO DE VIA RECTA,IMPRUDENCIA DEL CONDUCTOR,CONDUCCION NO ATENTO CONDICIONES TRANSITO MOMENTO, , , ,0,H-605,3,BIDIRECCIONAL,CONCRETO,BUENO,SECO,DESPEJADO,0,0,0,1,06,061,06109,Libertador General Bernardo O'Higgins,Cachapoal,Malloa,Ruta,H-605 km 3,-34.420104,-70.866035
-8026286.71014651,-4416189.51761127,162,2024,1613487,2024/05/26 00:00:00+00,Mayo,26,Domingo,1899/12/30 00:00:00+00,12:30:00,12,REGION NUBLE,SAN IGNACIO,CHOQUE,CHOQUE,RURAL,TRAMO DE VIA RECTA,IMPRUDENCIA DEL CONDUCTOR,CONDUCCION CONTRA SENTIDO DEL TRANSITO, , , ,0,"N-59, Q-33-N",26,BIDIRECCIONAL,ASFALTO,BUENO,SECO,DESPEJADO,0,0,0,1,16,161,16108,Ñuble,Diguillín,San Ignacio,Ruta,"N-59, Q-33-N km 26",-36.835408,-72.10136
-8087460.475551,-4686974.22539626,163,2024,1613437,2024/05/26 00:00:00+00,Mayo,26,Domingo,1899/12/30 00:00:00+00,20:30:00,20,REGION ARAUCANIA,TEMUCO,COLISION LATERAL,COLISION,RURAL,TRAMO DE VIA RECTA,IMPRUDENCIA DEL CONDUCTOR,CONDUCCION NO ATENTO CONDICIONES TRANSITO MOMENTO, , , ,0,"S-30, S-40","4,1",BIDIRECCIONAL,ASFALTO,BUENO,SECO,DESPEJADO,0,0,0,0,09,091,09101,La Araucanía,Cautín,Temuco,Ruta,"S-30, S-40 km 4,1",-38.757356,-72.650894
-7950891.3236076,-4110629.02441069,164,2024,1614067,2024/05/30 00:00:00+00,Mayo,30,Jueves,1899/12/30 00:00:00+00,00:23:00,0,REGION LIB.B.O'HIGGINS,SANTA CRUZ,COLISION POR ALCANCE,COLISION,RURAL,TRAMO DE VIA CURVA HORIZONTAL,VELOCIDAD IMPRUDENTE,"VELOCIDAD NO REDUCIR CRUCE DE CALLES, CUMBRE, CURVA, ETC.", , , ,0,I-730,6,BIDIRECCIONAL,ASFALTO,BUENO,SECO,DESPEJADO,1,0,0,0,06,063,06310,Libertador General Bernardo O'Higgins,Colchagua,Santa Cruz,Ruta,I-730 km 6,-34.607204,-71.424072
-7921235.33541398,-4173551.8448429,165,2024,1615890,2024/05/31 00:00:00+00,Mayo,31,Viernes,1899/12/30 00:00:00+00,07:10:00,7,REGION MAULE,CURICO,COLISION PERPENDICULAR,COLISION,RURAL,CRUCE CON SENAL PARE,IMPRUDENCIA DEL CONDUCTOR,NO RESPETAR DERECHO PREFERENTE DE PASO A VEHICULO, , , ,0,J-65,"11,5",BIDIRECCIONAL,ASFALTO,BUENO,HUMEDO,NEBLINA,0,0,0,1,07,073,07301,Maule,Curicó,Curicó,Ruta,"J-65 km 11,5",-35.071132,-71.157668
-7969349.07075175,-4269271.18891614,166,2024,1615360,2024/06/02 00:00:00+00,Junio,2,Domingo,1899/12/30 00:00:00+00,11:55:00,11,REGION MAULE,YERBAS BUENAS,COLISION PERPENDICULAR,COLISION,RURAL,CRUCE SIN SENALIZACION,IMPRUDENCIA DEL CONDUCTOR,CONDUCCION NO ATENTO CONDICIONES TRANSITO MOMENTO, , , ,0,L-25,"21,5",BIDIRECCIONAL,ASFALTO,BUENO,SECO,NUBLADO,0,0,0,1,07,074,07408,Maule,Linares,Yerbas Buenas,Ruta,"L-25 km 21,5",-35.771833,-71.589881
-7961422.64657098,-4119934.5976525,167,2024,1616706,2024/06/02 00:00:00+00,Junio,2,Domingo,1899/12/30 00:00:00+00,12:30:00,12,REGION LIB.B.O'HIGGINS,LOLOL,COLISION LATERAL,COLISION,RURAL,TRAMO DE VIA CURVA HORIZONTAL,IMPRUDENCIA DEL CONDUCTOR,CONDUCCION NO ATENTO CONDICIONES TRANSITO MOMENTO, , , ,0,I-72,18,BIDIRECCIONAL,RIPIO,REGULAR, ,DESPEJADO,0,0,0,0,06,063,06304,Libertador General Bernardo O'Higgins,Colchagua,Lolol,Ruta,I-72 km 18,-34.675978,-71.518676
-8088534.80856866,-4555308.54164361,168,2024,1615782,2024/06/03 00:00:00+00,Junio,3,Lunes,1899/12/30 00:00:00+00,12:00:00,12,REGION ARAUCANIA,ANGOL,COLISION POR ALCANCE,COLISION,RURAL,CRUCE CON SENAL PARE,IMPRUDENCIA DEL CONDUCTOR,CONDUCCION SIN MANTENER DISTANCIA RAZONABLE NI PRUDENTE, , , ,0,R-300,0,BIDIRECCIONAL,ASFALTO,BUENO,SECO,NUBLADO,0,1,0,0,09,092,09201,La Araucanía,Malleco,Angol,Ruta,R-300 km 0,-37.82908,-72.660544
-7968938.26319173,-4270434.44451287,169,2024,1615916,2024/06/03 00:00:00+00,Junio,3,Lunes,1899/12/30 00:00:00+00,18:29:00,18,REGION MAULE,LINARES,COLISION POR ALCANCE,COLISION,RURAL,PUENTE,IMPRUDENCIA DEL CONDUCTOR,CONDUCCION NO ATENTO CONDICIONES TRANSITO MOMENTO, , , ,0,L-25,"22,5",BIDIRECCIONAL,CONCRETO,BUENO,MOJADO,LLUVIA,0,0,0,1,07,074,07401,Maule,Linares,Linares,Ruta,"L-25 km 22,5",-35.780311,-71.58619
-7894859.7235115,-4108398.71407474,170,2024,1622640,2024/06/05 00:00:00+00,Junio,5,Miércoles,1899/12/30 00:00:00+00,09:10:00,9,REGION LIB.B.O'HIGGINS,SAN FERNANDO,COLISION POR ALCANCE,COLISION,RURAL,TRAMO DE VIA RECTA,IMPRUDENCIA DEL CONDUCTOR,CONDUCCION NO ATENTO CONDICIONES TRANSITO MOMENTO, , , ,0,I-301,9,BIDIRECCIONAL,ASFALTO,BUENO,SECO,DESPEJADO,0,0,1,0,06,063,06301,Libertador General Bernardo O'Higgins,Colchagua,San Fernando,Ruta,I-301 km 9,-34.590712,-70.920732
-7901334.40586726,-4093130.94375043,171,2024,1616749,2024/06/05 00:00:00+00,Junio,5,Miércoles,1899/12/30 00:00:00+00,20:30:00,20,REGION LIB.B.O'HIGGINS,SAN VICENTE,COLISION PERPENDICULAR,COLISION,RURAL,TRAMO DE VIA RECTA,ALCOHOL EN CONDUCTOR,CONDUCCION EN ESTADO DE EBRIEDAD, , , ,0,H-80-I,10,BIDIRECCIONAL,ASFALTO,BUENO,SECO,DESPEJADO,0,1,0,0,06,061,06117,Libertador General Bernardo O'Higgins,Cachapoal,San Vicente,Ruta,H-80-I km 10,-34.477727,-70.978895
-7878152.4419865,-3319314.46895185,172,2024,1617180,2024/06/09 00:00:00+00,Junio,9,Domingo,1899/12/30 00:00:00+00,13:50:00,13,REGION ATACAMA,VALLENAR,COLISION LATERAL,COLISION,RURAL,TRAMO DE VIA RECTA,IMPRUDENCIA DEL CONDUCTOR,CONDUCCION NO ATENTO CONDICIONES TRANSITO MOMENTO, , , ,0,RUTA 5 NORTE,662,BIDIRECCIONAL,ASFALTO,BUENO,SECO,DESPEJADO,0,0,0,1,03,033,03301,Atacama,Huasco,Vallenar,Ruta,RUTA 5 NORTE km 662,-28.556467,-70.770647
-8049041.68228308,-4667582.1427763,173,2024,1617886,2024/06/15 00:00:00+00,Junio,15,Sábado,1899/12/30 00:00:00+00,12:30:00,12,REGION ARAUCANIA,LAUTARO,COLISION LATERAL,COLISION,RURAL,TRAMO DE VIA RECTA,IMPRUDENCIA DEL CONDUCTOR,CONDUCCION CAMBIAR SORPRESIVAMENTE PISTA CIRCULACION, , , ,0,S-225,15,BIDIRECCIONAL,ASFALTO,REGULAR,MOJADO,NUBLADO,0,1,0,0,09,091,09108,La Araucanía,Cautín,Lautaro,Ruta,S-225 km 15,-38.621383,-72.305772
-8014516.35249267,-4364202.95804298,174,2024,1621603,2024/06/19 00:00:00+00,Junio,19,Miércoles,1899/12/30 00:00:00+00,11:40:00,11,REGION NUBLE,SAN CARLOS,VOLCADURA,VOLCADURA,RURAL,TRAMO DE VIA RECTA,ALCOHOL EN CONDUCTOR,CONDUCCION EN ESTADO DE EBRIEDAD, , , ,0,RUTA 5 SUR,383,BIDIRECCIONAL,ASFALTO,BUENO,SECO,DESPEJADO,0,0,0,0,16,163,16301,Ñuble,Punilla,San Carlos,Ruta,RUTA 5 SUR km 383,-36.460725,-71.995625
-7972125.95062243,-4238061.27845651,175,2024,1619406,2024/06/21 00:00:00+00,Junio,21,Viernes,1899/12/30 00:00:00+00,18:40:00,18,REGION MAULE,MAULE,COLISION LATERAL,COLISION,RURAL,TRAMO DE VIA RECTA,IMPRUDENCIA DEL CONDUCTOR,NO RESPETAR DERECHO PREFERENTE DE PASO A VEHICULO, , , ,0,K-635,10,BIDIRECCIONAL,ASFALTO,BUENO,MOJADO,LLUVIA,0,0,0,1,07,071,07105,Maule,Talca,Maule,Ruta,K-635 km 10,-35.544035,-71.614826
-7930561.61068515,-4082321.11359341,176,2024,1619257,2024/06/23 00:00:00+00,Junio,23,Domingo,1899/12/30 00:00:00+00,19:20:00,19,REGION LIB.B.O'HIGGINS,PICHIDEGUA,COLISION LATERAL,COLISION,RURAL,TRAMO DE VIA RECTA,IMPRUDENCIA DEL CONDUCTOR,CONDUCCION NO ATENTO CONDICIONES TRANSITO MOMENTO, , , ,0,H-76,21,BIDIRECCIONAL,ASFALTO,BUENO,HUMEDO,DESPEJADO,0,0,0,1,06,061,06113,Libertador General Bernardo O'Higgins,Cachapoal,Pichidegua,Ruta,H-76 km 21,-34.39764,-71.241447
-8051394.52979371,-4516307.9661458,177,2024,1621167,2024/06/24 00:00:00+00,Junio,24,Lunes,1899/12/30 00:00:00+00,06:50:00,6,REGION BIO BIO,LOS ANGELES,ATROPELLO,ATROPELLO,RURAL,TRAMO DE VIA RECTA,IMPRUDENCIA DEL CONDUCTOR,CONDUCCION NO ATENTO CONDICIONES TRANSITO MOMENTO, , , ,0,Q-550,2,BIDIRECCIONAL,ASFALTO,BUENO,SECO,DESPEJADO,0,0,0,1,08,083,08301,Biobío,Biobío,Los Angeles,Ruta,Q-550 km 2,-37.551841,-72.326908
-8013131.3538825,-5710720.86281785,178,2024,1619284,2024/06/24 00:00:00+00,Junio,24,Lunes,1899/12/30 00:00:00+00,09:30:00,9,REGION AYSEN DEL GRL. CARLOS IBANEZ DEL CAMPO,AYSEN,COLISION LATERAL,COLISION,RURAL,TRAMO DE VIA RECTA,IMPRUDENCIA DEL CONDUCTOR,CONDUCCION NO ATENTO CONDICIONES TRANSITO MOMENTO, , , ,0,240 CH,85,BIDIRECCIONAL,CONCRETO,BUENO,ESCARCHA,NUBLADO,0,0,0,1,11,112,11201,Aysén del General Carlos Ibáñez del Campo,Aisén,Aisén,Ruta,240 CH km 85,-45.563797,-71.983184
-8032367.62801195,-4791346.81088235,179,2024,1620721,2024/06/28 00:00:00+00,Junio,28,Viernes,1899/12/30 00:00:00+00,18:15:00,18,REGION ARAUCANIA,VILLARRICA,COLISION PERPENDICULAR,COLISION,RURAL,TRAMO DE VIA RECTA,IMPRUDENCIA DEL CONDUCTOR,CONDUCCION SIN MANTENER DISTANCIA RAZONABLE NI PRUDENTE, , , ,0,"S-95-T, T-241, T-243, T-95-S",26,BIDIRECCIONAL,ASFALTO,BUENO,HUMEDO,DESPEJADO,0,0,0,1,09,091,09120,La Araucanía,Cautín,Villarrica,Ruta,"S-95-T, T-241, T-243, T-95-S km 26",-39.484744,-72.155986
-7915639.4354456,-4188469.97232849,180,2024,1621275,2024/06/30 00:00:00+00,Junio,30,Domingo,1899/12/30 00:00:00+00,14:35:00,14,REGION MAULE,CURICO,COLISION LATERAL,COLISION,RURAL,TRAMO DE VIA RECTA,IMPRUDENCIA DEL CONDUCTOR,ADELANTAMIENTO SIN EL ESPACIO O TIEMPO SUFICIENTE, , , ,0,J-65,26,BIDIRECCIONAL,ASFALTO,BUENO,SECO,DESPEJADO,0,0,1,0,07,073,07301,Maule,Curicó,Curicó,Ruta,J-65 km 26,-35.180738,-71.107399
-8128979.51689355,-5078439.12932823,181,2024,1622654,2024/07/01 00:00:00+00,Julio,1,Lunes,1899/12/30 00:00:00+00,09:17:00,9,REGION LOS LAGOS,PUERTO MONTT,COLISION FRONTAL,COLISION,RURAL,TRAMO DE VIA RECTA,IMPRUDENCIA DEL CONDUCTOR,CONDUCCION NO ATENTO CONDICIONES TRANSITO MOMENTO, , , ,0,RUTA 226,"4,2",BIDIRECCIONAL,ASFALTO,REGULAR,HUMEDO,DESPEJADO,0,0,0,1,10,101,10101,Los Lagos,Llanquihue,Puerto Montt,Ruta,"RUTA 226 km 4,2",-41.446595,-73.023865
-7970716.80570151,-4330025.99346195,182,2024,1627313,2024/07/01 00:00:00+00,Julio,1,Lunes,1899/12/30 00:00:00+00,17:10:00,17,REGION MAULE,PARRAL,COLISION FRONTAL,COLISION,RURAL,TRAMO DE VIA RECTA,IMPRUDENCIA DEL CONDUCTOR,CONDUCCION NO ATENTO CONDICIONES TRANSITO MOMENTO, , , ,0,L-75,22,BIDIRECCIONAL,ASFALTO,BUENO,SECO,DESPEJADO,0,0,0,1,07,074,07404,Maule,Linares,Parral,Ruta,L-75 km 22,-36.213409,-71.602167
-7984177.84863796,-4364256.71747597,183,2024,1624821,2024/07/07 00:00:00+00,Julio,7,Domingo,1899/12/30 00:00:00+00,11:30:00,11,REGION NUBLE,SAN CARLOS,COLISION FRONTAL,COLISION,RURAL,TRAMO DE VIA RECTA,IMPRUDENCIA DEL CONDUCTOR,CONDUCCION CAMBIAR SORPRESIVAMENTE PISTA CIRCULACION, , , ,0,N-31,21,BIDIRECCIONAL,ASFALTO,REGULAR,ESCARCHA,DESPEJADO,0,1,0,0,16,163,16301,Ñuble,Punilla,San Carlos,Ruta,N-31 km 21,-36.461113,-71.72309
-8050790.26943035,-4410172.79336979,184,2024,1623360,2024/07/07 00:00:00+00,Julio,7,Domingo,1899/12/30 00:00:00+00,19:20:00,19,REGION NUBLE,BULNES,COLISION,COLISION,RURAL,TRAMO DE VIA RECTA,IMPRUDENCIA DEL CONDUCTOR,CONDUCCION NO ATENTO CONDICIONES TRANSITO MOMENTO, , , ,0,RUTA 5 SUR,432,BIDIRECCIONAL,ASFALTO,BUENO,HUMEDO,NUBLADO,1,0,0,0,16,161,16102,Ñuble,Diguillín,Bulnes,Ruta,RUTA 5 SUR km 432,-36.792137,-72.321479
-8064716.89506075,-4528585.85880136,185,2024,1624525,2024/07/13 00:00:00+00,Julio,13,Sábado,1899/12/30 00:00:00+00,20:00:00,20,REGION BIO BIO,NEGRETE,COLISION,COLISION,RURAL,TRAMO DE VIA RECTA,IMPRUDENCIA DEL CONDUCTOR,CONDUCCION NO ATENTO CONDICIONES TRANSITO MOMENTO, , , ,0,Q-80,"19,5",BIDIRECCIONAL,ASFALTO,BUENO,SECO,DESPEJADO,0,1,0,0,08,083,08307,Biobío,Biobío,Negrete,Ruta,"Q-80 km 19,5",-37.639231,-72.446584
-8141188.19136885,-4419431.35226451,186,2024,1624495,2024/07/15 00:00:00+00,Julio,15,Lunes,1899/12/30 00:00:00+00,17:15:00,17,REGION BIO BIO,SAN PEDRO DE LA PAZ,COLISION PERPENDICULAR,COLISION,RURAL,CRUCE CON SEMAFORO FUNCIONANDO,IMPRUDENCIA DEL CONDUCTOR,NO RESPETAR DERECHO PREFERENTE DE PASO A VEHICULO, , , ,0,RUTA 160,7,BIDIRECCIONAL CON BANDEJON,CONCRETO,BUENO,SECO,DESPEJADO,0,0,0,0,08,081,08108,Biobío,Concepción,San Pedro de la Paz,Ruta,RUTA 160 km 7,-36.858712,-73.133538
-7909849.73031429,-4088136.07849347,187,2024,1625561,2024/07/21 00:00:00+00,Julio,21,Domingo,1899/12/30 00:00:00+00,18:20:00,18,REGION LIB.B.O'HIGGINS,SAN VICENTE,COLISION LATERAL,COLISION,RURAL,TRAMO DE VIA RECTA,ALCOHOL EN CONDUCTOR,CONDUCCION EN ESTADO DE EBRIEDAD, , , ,0,RUTA 66,15,BIDIRECCIONAL,ASFALTO,BUENO,SECO,DESPEJADO,0,1,0,0,06,061,06117,Libertador General Bernardo O'Higgins,Cachapoal,San Vicente,Ruta,RUTA 66 km 15,-34.440731,-71.055389
-7929823.62523425,-4117666.08938073,188,2024,1629365,2024/07/22 00:00:00+00,Julio,22,Lunes,1899/12/30 00:00:00+00,07:30:00,7,REGION LIB.B.O'HIGGINS,NANCAGUA,COLISION POR ALCANCE,COLISION,RURAL,TRAMO DE VIA RECTA,IMPRUDENCIA DEL CONDUCTOR,CONDUCCION NO ATENTO CONDICIONES TRANSITO MOMENTO, , , ,0,I-50,26,BIDIRECCIONAL,ASFALTO,BUENO,SECO,DESPEJADO,0,0,0,1,06,063,06305,Libertador General Bernardo O'Higgins,Colchagua,Nancagua,Ruta,I-50 km 26,-34.659218,-71.234818
-7895867.43023319,-4091160.64505796,189,2024,1626159,2024/07/22 00:00:00+00,Julio,22,Lunes,1899/12/30 00:00:00+00,18:00:00,18,REGION LIB.B.O'HIGGINS,MALLOA,COLISION,COLISION,RURAL,TRAMO DE VIA RECTA,IMPRUDENCIA DEL CONDUCTOR,CONDUCCION NO ATENTO CONDICIONES TRANSITO MOMENTO, , , ,0,RUTA 66,3,BIDIRECCIONAL,ASFALTO,BUENO,SECO,DESPEJADO,0,1,0,0,06,061,06109,Libertador General Bernardo O'Higgins,Cachapoal,Malloa,Ruta,RUTA 66 km 3,-34.463136,-70.929784
-7964104.91804358,-4284279.48253488,190,2024,1626341,2024/07/22 00:00:00+00,Julio,22,Lunes,1899/12/30 00:00:00+00,18:30:00,18,REGION MAULE,LINARES,CHOQUE LADO/LADO,CHOQUE,RURAL,CRUCE CON SENAL CEDA EL PASO,IMPRUDENCIA DEL CONDUCTOR,CONDUCCION NO ATENTO CONDICIONES TRANSITO MOMENTO, , , ,0,L-45,5,BIDIRECCIONAL,ASFALTO,BUENO,SECO,DESPEJADO,0,1,0,0,07,074,07401,Maule,Linares,Linares,Ruta,L-45 km 5,-35.881146,-71.542772
-8121692.38093391,-5062741.29594607,191,2024,1626900,2024/07/25 00:00:00+00,Julio,25,Jueves,1899/12/30 00:00:00+00,11:16:00,11,REGION LOS LAGOS,PUERTO VARAS,COLISION LATERAL,COLISION,RURAL,TRAMO DE VIA RECTA,IMPRUDENCIA DEL CONDUCTOR,CONDUCCION NO ATENTO CONDICIONES TRANSITO MOMENTO, , , ,0,V-505,"1,5",BIDIRECCIONAL,ASFALTO,BUENO,HUMEDO,LLOVIZNA,0,1,0,0,10,101,10109,Los Lagos,Llanquihue,Puerto Varas,Ruta,"V-505 km 1,5",-41.340807,-72.958404
-8087207.72268794,-4554312.90915995,192,2024,1627060,2024/07/26 00:00:00+00,Julio,26,Viernes,1899/12/30 00:00:00+00,20:30:00,20,REGION ARAUCANIA,ANGOL,COLISION LATERAL,COLISION,RURAL,TRAMO DE VIA RECTA,IMPRUDENCIA DEL CONDUCTOR,CONDUCCION NO ATENTO CONDICIONES TRANSITO MOMENTO, , , ,0,R-302,"1,5",BIDIRECCIONAL,ASFALTO,REGULAR,HUMEDO,DESPEJADO,0,1,0,0,09,092,09201,La Araucanía,Malleco,Angol,Ruta,"R-302 km 1,5",-37.822015,-72.648623
-7992626.69073624,-4319935.20352654,193,2024,1628614,2024/07/28 00:00:00+00,Julio,28,Domingo,1899/12/30 00:00:00+00,17:40:00,17,REGION MAULE,RETIRO,COLISION POR ALCANCE,COLISION,RURAL,TRAMO DE VIA RECTA,IMPRUDENCIA DEL CONDUCTOR,CONDUCCION CAMBIAR SORPRESIVAMENTE PISTA CIRCULACION, , , ,0,L-75,1,BIDIRECCIONAL,ASFALTO,BUENO,SECO,DESPEJADO,0,1,0,0,07,074,07405,Maule,Linares,Retiro,Ruta,L-75 km 1,-36.140239,-71.798987
-7914135.58591317,-4081901.77373837,194,2024,1629528,2024/08/08 00:00:00+00,Agosto,8,Jueves,1899/12/30 00:00:00+00,13:00:00,13,REGION LIB.B.O'HIGGINS,SAN VICENTE,COLISION LATERAL,COLISION,RURAL,TRAMO DE VIA RECTA,IMPRUDENCIA DEL CONDUCTOR,CONDUCCION NO ATENTO CONDICIONES TRANSITO MOMENTO, , , ,0,"H-50, H-56",4,BIDIRECCIONAL,ASFALTO,BUENO,SECO,DESPEJADO,0,0,0,2,06,061,06117,Libertador General Bernardo O'Higgins,Cachapoal,San Vicente,Ruta,"H-50, H-56 km 4",-34.394531,-71.09389
-7945094.78671009,-4083841.74535187,195,2024,1629718,2024/08/11 00:00:00+00,Agosto,11,Domingo,1899/12/30 00:00:00+00,18:20:00,18,REGION LIB.B.O'HIGGINS,PICHIDEGUA,COLISION LATERAL,COLISION,RURAL,TRAMO DE VIA RECTA,IMPRUDENCIA DEL CONDUCTOR,CONDUCCION NO ATENTO CONDICIONES TRANSITO MOMENTO, , , ,0,H-82,19,BIDIRECCIONAL,ASFALTO,BUENO,SECO,DESPEJADO,0,1,0,0,06,061,06113,Libertador General Bernardo O'Higgins,Cachapoal,Pichidegua,Ruta,H-82 km 19,-34.40891,-71.372001
-8086564.2905097,-4616761.32269084,196,2024,1632736,2024/08/11 00:00:00+00,Agosto,11,Domingo,1899/12/30 00:00:00+00,21:00:00,21,REGION ARAUCANIA,TRAIGUEN,COLISION POR ALCANCE,COLISION,RURAL,TRAMO DE VIA RECTA,IMPRUDENCIA DEL CONDUCTOR,CONDUCCION SIN MANTENER DISTANCIA RAZONABLE NI PRUDENTE, , , ,0,"R-86, R-88",26,BIDIRECCIONAL,ASFALTO,BUENO,SECO,DESPEJADO,0,0,0,1,09,092,09210,La Araucanía,Malleco,Traiguén,Ruta,"R-86, R-88 km 26",-38.263815,-72.642843
-7913152.95353943,-4086621.45772972,197,2024,1630479,2024/08/14 00:00:00+00,Agosto,14,Miércoles,1899/12/30 00:00:00+00,07:20:00,7,REGION LIB.B.O'HIGGINS,SAN VICENTE,COLISION POR ALCANCE,COLISION,RURAL,TRAMO DE VIA RECTA,IMPRUDENCIA DEL CONDUCTOR,CONDUCCION SIN MANTENER DISTANCIA RAZONABLE NI PRUDENTE, , , ,0,RUTA 66,18,BIDIRECCIONAL,ASFALTO,BUENO,HUMEDO,NUBLADO,0,1,0,0,06,061,06117,Libertador General Bernardo O'Higgins,Cachapoal,San Vicente,Ruta,RUTA 66 km 18,-34.429509,-71.085062
-7920014.97277585,-3870340.07144478,198,2024,1631172,2024/08/19 00:00:00+00,Agosto,19,Lunes,1899/12/30 00:00:00+00,17:15:00,17,REGION VALPARAISO,HIJUELAS,COLISION LATERAL,COLISION,RURAL,TRAMO DE VIA RECTA,IMPRUDENCIA DEL CONDUCTOR,CONDUCCION SIN MANTENER DISTANCIA RAZONABLE NI PRUDENTE, , , ,0,RUTA 5 NORTE,105,BIDIRECCIONAL,ASFALTO,BUENO,SECO,NUBLADO,0,0,0,1,05,055,05503,Valparaíso,Quillota,Hijuelas,Ruta,RUTA 5 NORTE km 105,-32.811724,-71.146705
-7961276.3307481,-4233074.19846338,199,2024,1632655,2024/08/19 00:00:00+00,Agosto,19,Lunes,1899/12/30 00:00:00+00,22:00:00,22,REGION MAULE,SAN CLEMENTE,COLISION LATERAL,COLISION,RURAL,TRAMO DE VIA CURVA HORIZONTAL,IMPRUDENCIA DEL CONDUCTOR,CONDUCCION NO ATENTO CONDICIONES TRANSITO MOMENTO, , , ,0,115 CH,14,BIDIRECCIONAL,ASFALTO,BUENO,SECO,DESPEJADO,0,0,0,1,07,071,07109,Maule,Talca,San Clemente,Ruta,115 CH km 14,-35.507574,-71.517362
-7937844.79637247,-4076311.27500471,200,2024,1632322,2024/08/24 00:00:00+00,Agosto,24,Sábado,1899/12/30 00:00:00+00,18:45:00,18,REGION LIB.B.O'HIGGINS,PICHIDEGUA,COLISION LATERAL,COLISION,RURAL,TRAMO DE VIA RECTA,ALCOHOL EN CONDUCTOR,CONDUCCION EN ESTADO DE EBRIEDAD, , , ,0,H-76,30,BIDIRECCIONAL,ASFALTO,BUENO,SECO,DESPEJADO,0,0,1,0,06,061,06113,Libertador General Bernardo O'Higgins,Cachapoal,Pichidegua,Ruta,H-76 km 30,-34.353081,-71.306873
-8178956.55086331,-4524093.32229603,201,2024,1634987,2024/08/26 00:00:00+00,Agosto,26,Lunes,1899/12/30 00:00:00+00,15:32:00,15,REGION BIO BIO,LOS ALAMOS,VOLCADURA,VOLCADURA,RURAL,TRAMO DE VIA CURVA HORIZONTAL,VELOCIDAD IMPRUDENTE,VELOCIDAD NO RAZONABLE NI PRUDENTE, , , ,0,P-464,"2,5",BIDIRECCIONAL,RIPIO,MALO, ,NUBLADO,0,0,1,0,08,082,08206,Biobío,Arauco,Los Alamos,Ruta,"P-464 km 2,5",-37.607266,-73.472817
-7967448.81298014,-4256243.05910373,202,2024,1633805,2024/08/27 00:00:00+00,Agosto,27,Martes,1899/12/30 00:00:00+00,11:50:00,11,REGION MAULE,YERBAS BUENAS,COLISION LATERAL,COLISION,RURAL,TRAMO DE VIA RECTA,IMPRUDENCIA DEL CONDUCTOR,CONDUCCION NO ATENTO CONDICIONES TRANSITO MOMENTO, , , ,0,L-25,10,BIDIRECCIONAL,ASFALTO,BUENO,SECO,DESPEJADO,0,0,0,2,07,074,07408,Maule,Linares,Yerbas Buenas,Ruta,L-25 km 10,-35.676821,-71.57281
-7924049.82932797,-4158980.7935805,203,2024,1637841,2024/08/30 00:00:00+00,Agosto,30,Viernes,1899/12/30 00:00:00+00,17:00:00,17,REGION MAULE,ROMERAL,COLISION,COLISION,RURAL,TRAMO DE VIA RECTA,IMPRUDENCIA DEL CONDUCTOR,CONDUCCION NO ATENTO CONDICIONES TRANSITO MOMENTO, , , ,0,J-55,1,BIDIRECCIONAL,ASFALTO,BUENO,SECO,DESPEJADO,0,0,0,1,07,073,07306,Maule,Curicó,Romeral,Ruta,J-55 km 1,-34.963932,-71.182951
-7944371.59398312,-4107580.71216385,204,2024,1635022,2024/08/30 00:00:00+00,Agosto,30,Viernes,1899/12/30 00:00:00+00,23:25:00,23,REGION LIB.B.O'HIGGINS,PALMILLA,COLISION LATERAL,COLISION,RURAL,TRAMO DE VIA RECTA,ALCOHOL EN CONDUCTOR,CONDUCCION EN ESTADO DE EBRIEDAD, , , ,0,I-340,1,BIDIRECCIONAL,ASFALTO,BUENO,SECO,DESPEJADO,0,1,0,0,06,063,06306,Libertador General Bernardo O'Higgins,Colchagua,Palmilla,Ruta,I-340 km 1,-34.584663,-71.365504
-8206979.14663232,-5215735.53034593,205,2024,1635520,2024/08/31 00:00:00+00,Agosto,31,Sábado,1899/12/30 00:00:00+00,12:30:00,12,REGION LOS LAGOS,DALCAHUE,CHOQUE,CHOQUE,RURAL,TRAMO DE VIA RECTA,ALCOHOL EN CONDUCTOR,CONDUCCION BAJO LA INFLUENCIA DEL ALCOHOL, , , ,0,RUTA 5 SUR,"1168,7",BIDIRECCIONAL,ASFALTO,BUENO,OTROS,LLUVIA,1,0,0,0,10,102,10205,Los Lagos,Chiloé,Dalcahue,Ruta,"RUTA 5 SUR km 1168,7",-42.364489,-73.724548
-7889884.9796671,-4120670.08797936,206,2024,1638866,2024/09/09 00:00:00+00,Septiembre,9,Lunes,1899/12/30 00:00:00+00,11:00:00,11,REGION LIB.B.O'HIGGINS,SAN FERNANDO,VOLCADURA,VOLCADURA,RURAL,TRAMO DE VIA RECTA,VELOCIDAD IMPRUDENTE,VELOCIDAD NO RAZONABLE NI PRUDENTE, , , ,0,I-45,"14,9",BIDIRECCIONAL,ASFALTO,BUENO,HUMEDO,DESPEJADO,0,1,0,0,06,063,06301,Libertador General Bernardo O'Higgins,Colchagua,San Fernando,Ruta,"I-45 km 14,9",-34.681412,-70.876043
-7939105.07019839,-4160296.95726259,207,2024,1636656,2024/09/11 00:00:00+00,Septiembre,11,Miércoles,1899/12/30 00:00:00+00,07:00:00,7,REGION MAULE,CURICO,COLISION LATERAL,COLISION,RURAL,TRAMO DE VIA CURVA HORIZONTAL,IMPRUDENCIA DEL CONDUCTOR,CONDUCCION NO ATENTO CONDICIONES TRANSITO MOMENTO, , , ,0,J-620,"7,62",BIDIRECCIONAL,CONCRETO,BUENO,SECO,NUBLADO,0,0,0,1,07,073,07301,Maule,Curicó,Curicó,Ruta,"J-620 km 7,62",-34.973621,-71.318194
-7961276.3307481,-4233074.19846338,208,2024,1637413,2024/09/11 00:00:00+00,Septiembre,11,Miércoles,1899/12/30 00:00:00+00,18:30:00,18,REGION MAULE,SAN CLEMENTE,COLISION FRONTAL,COLISION,RURAL,TRAMO DE VIA RECTA,DESOBEDIENCIA A SEÑALIZACION,SENALIZACION DESOBEDECER SENAL PARE, , , ,0,115 CH,14,BIDIRECCIONAL,ASFALTO,BUENO,SECO,DESPEJADO,0,0,0,1,07,071,07109,Maule,Talca,San Clemente,Ruta,115 CH km 14,-35.507574,-71.517362
-7922304.02572457,-4091799.33562575,209,2024,1637089,2024/09/14 00:00:00+00,Septiembre,14,Sábado,1899/12/30 00:00:00+00,07:40:00,7,REGION LIB.B.O'HIGGINS,SAN VICENTE,COLISION FRONTAL,COLISION,RURAL,TRAMO DE VIA CURVA VERTICAL,IMPRUDENCIA DEL CONDUCTOR,CONDUCCION NO ATENTO CONDICIONES TRANSITO MOMENTO, , , ,0,H-830,9,UNIDIRECCIONAL,ASFALTO,BUENO,SECO,DESPEJADO,0,0,0,1,06,061,06117,Libertador General Bernardo O'Higgins,Cachapoal,San Vicente,Ruta,H-830 km 9,-34.467866,-71.167268
-7888210.44438245,-4122416.57628135,210,2024,1638323,2024/09/15 00:00:00+00,Septiembre,15,Domingo,1899/12/30 00:00:00+00,12:15:00,12,REGION LIB.B.O'HIGGINS,SAN FERNANDO,COLISION POR ALCANCE,COLISION,RURAL,TRAMO DE VIA RECTA,IMPRUDENCIA DEL CONDUCTOR,CONDUCCION NO ATENTO CONDICIONES TRANSITO MOMENTO, , , ,0,I-45,17,BIDIRECCIONAL,ASFALTO,BUENO,SECO,DESPEJADO,0,0,0,1,06,063,06301,Libertador General Bernardo O'Higgins,Colchagua,San Fernando,Ruta,I-45 km 17,-34.694312,-70.861
-8032806.41644956,-4501202.40216708,211,2024,1640941,2024/09/26 00:00:00+00,Septiembre,26,Jueves,1899/12/30 00:00:00+00,07:50:00,7,REGION BIO BIO,LOS ANGELES,COLISION POR ALCANCE,COLISION,RURAL,TRAMO DE VIA RECTA,IMPRUDENCIA DEL CONDUCTOR,CONDUCCION NO ATENTO CONDICIONES TRANSITO MOMENTO, , , ,0,Q-447,3,BIDIRECCIONAL,ASFALTO,BUENO,SECO,DESPEJADO,0,0,0,1,08,083,08301,Biobío,Biobío,Los Angeles,Ruta,Q-447 km 3,-37.444183,-72.159928
-7928958.24163927,-4146311.99802778,212,2024,1640433,2024/09/27 00:00:00+00,Septiembre,27,Viernes,1899/12/30 00:00:00+00,12:45:00,12,REGION MAULE,TENO,OTRO TIPO,OTRO TIPO,RURAL,TRAMO DE VIA RECTA,CAUSAS NO DETERMINADAS,CAUSAS NO DETERMINADAS, , , ,0,J-40,"9,5",BIDIRECCIONAL,ASFALTO,BUENO,SECO,DESPEJADO,1,0,0,0,07,073,07308,Maule,Curicó,Teno,Ruta,"J-40 km 9,5",-34.870614,-71.227044
-7901334.40586726,-4093130.94375043,213,2024,1639643,2024/09/27 00:00:00+00,Septiembre,27,Viernes,1899/12/30 00:00:00+00,17:00:00,17,REGION LIB.B.O'HIGGINS,SAN VICENTE,COLISION LATERAL,COLISION,RURAL,TRAMO DE VIA RECTA,IMPRUDENCIA DEL CONDUCTOR,CONDUCCION NO ATENTO CONDICIONES TRANSITO MOMENTO, , , ,0,H-80-I,10,BIDIRECCIONAL,ASFALTO,BUENO,SECO,DESPEJADO,0,0,0,1,06,061,06117,Libertador General Bernardo O'Higgins,Cachapoal,San Vicente,Ruta,H-80-I km 10,-34.477727,-70.978895
-7983897.97604262,-4243979.1625092,214,2024,1641823,2024/10/04 00:00:00+00,Octubre,4,Viernes,1899/12/30 00:00:00+00,22:50:00,22,REGION MAULE,SAN JAVIER,COLISION POR ALCANCE,COLISION,RURAL,TRAMO DE VIA RECTA,IMPRUDENCIA DEL CONDUCTOR,ADELANTAMIENTO POR LA BERMA, , , ,0,L-16,2,BIDIRECCIONAL,CONCRETO,BUENO,SECO,DESPEJADO,0,0,0,1,07,074,07406,Maule,Linares,San Javier,Ruta,L-16 km 2,-35.587279,-71.720576
-8219184.69032486,-5250403.04025317,215,2024,1642173,2024/10/07 00:00:00+00,Octubre,7,Lunes,1899/12/30 00:00:00+00,14:30:00,14,REGION LOS LAGOS,CHONCHI,CHOQUE FRENTE/LADO,CHOQUE,RURAL,CRUCE SIN SENALIZACION,IMPRUDENCIA DEL CONDUCTOR,NO RESPETAR DERECHO PREFERENTE DE PASO A VEHICULO, , , ,0,W-648,"2,94",BIDIRECCIONAL,RIPIO,REGULAR, ,DESPEJADO,0,1,0,0,10,102,10203,Los Lagos,Chiloé,Chonchi,Ruta,"W-648 km 2,94",-42.59417,-73.834192
-8199022.41861449,-5217941.65541557,216,2024,1642755,2024/10/08 00:00:00+00,Octubre,8,Martes,1899/12/30 00:00:00+00,19:40:00,19,REGION LOS LAGOS,DALCAHUE,VOLCADURA,VOLCADURA,RURAL,TRAMO DE VIA CURVA HORIZONTAL,IMPRUDENCIA DEL CONDUCTOR,CONDUCCION NO ATENTO CONDICIONES TRANSITO MOMENTO, , , ,0,W-45,"7,3",BIDIRECCIONAL,RIPIO,REGULAR, ,DESPEJADO,0,0,0,1,10,102,10205,Los Lagos,Chiloé,Dalcahue,Ruta,"W-45 km 7,3",-42.379131,-73.653072
-8145434.77667964,-4459641.22453332,217,2024,1649606,2024/10/10 00:00:00+00,Octubre,10,Jueves,1899/12/30 00:00:00+00,11:55:00,11,REGION BIO BIO,ARAUCO,CHOQUE LATERAL,CHOQUE,RURAL,CRUCE SIN SENALIZACION,IMPRUDENCIA DEL CONDUCTOR,CONDUCCION NO ATENTO CONDICIONES TRANSITO MOMENTO, , , ,0,RUTA 160,47,BIDIRECCIONAL,ASFALTO,BUENO,SECO,DESPEJADO,0,0,0,1,08,082,08202,Biobío,Arauco,Arauco,Ruta,RUTA 160 km 47,-37.147177,-73.171686
-7911976.36514258,-3872389.28834709,218,2024,1643004,2024/10/10 00:00:00+00,Octubre,10,Jueves,1899/12/30 00:00:00+00,13:30:00,13,REGION VALPARAISO,HIJUELAS,CHOQUE LATERAL,CHOQUE,RURAL,TRAMO DE VIA RECTA,IMPRUDENCIA DEL CONDUCTOR,VIRAJES INDEBIDOS, , , ,0,F-301-E,22,BIDIRECCIONAL,ASFALTO,BUENO,SECO,DESPEJADO,0,1,0,0,05,055,05503,Valparaíso,Quillota,Hijuelas,Ruta,F-301-E km 22,-32.827194,-71.074493
-7908911.81875373,-4125006.05210098,219,2024,1643980,2024/10/11 00:00:00+00,Octubre,11,Viernes,1899/12/30 00:00:00+00,19:50:00,19,REGION LIB.B.O'HIGGINS,SAN FERNANDO,COLISION LATERAL,COLISION,RURAL,CRUCE CON SENAL PARE,ALCOHOL EN CONDUCTOR,CONDUCCION EN ESTADO DE EBRIEDAD, , , ,0,I-86,2,BIDIRECCIONAL,ASFALTO,BUENO,SECO,DESPEJADO,0,0,0,0,06,063,06301,Libertador General Bernardo O'Higgins,Colchagua,San Fernando,Ruta,I-86 km 2,-34.713436,-71.046964
-8030373.5123694,-4501597.03927361,220,2024,1643670,2024/10/12 00:00:00+00,Octubre,12,Sábado,1899/12/30 00:00:00+00,21:10:00,21,REGION BIO BIO,LOS ANGELES,COLISION LATERAL,COLISION,RURAL,TRAMO DE VIA RECTA,IMPRUDENCIA DEL CONDUCTOR,CONDUCCION NO ATENTO CONDICIONES TRANSITO MOMENTO, , , ,0,Q-447,5,BIDIRECCIONAL,ASFALTO,BUENO,SECO,DESPEJADO,0,1,0,0,08,083,08301,Biobío,Biobío,Los Angeles,Ruta,Q-447 km 5,-37.446998,-72.138073
